[{
  "_id": {
    "$oid": "6859b2ddae87f6a005bd9fb1"
  },
  "name": "北京大学",
  "majorCategory": "综合类",
  "natureOfRunning": "公办",
  "schoolType": "普通本科",
  "is985": true,
  "is211": true,
  "isDoubleFirstClass": true,
  "province": "北京",
  "city": "北京市",
  "affiliation": "教育部",
  "campuses": [
    {
      "name": null,
      "longitude": 116.3107,
      "latitude": 39.992591
    },
    {
      "name": "学院路校区",
      "latitude": 39.984316,
      "longitude": 116.358886
    },
    {
      "name": "临潼校区",
      "latitude": 34.362169,
      "longitude": 109.176229
    }
  ]
},
{
  "_id": {
    "$oid": "6859b2ddae87f6a005bd9fb2"
  },
  "name": "清华大学",
  "majorCategory": "综合类",
  "natureOfRunning": "公办",
  "schoolType": "普通本科",
  "is985": true,
  "is211": true,
  "isDoubleFirstClass": true,
  "province": "北京",
  "city": "北京市",
  "affiliation": "教育部",
  "campuses": [
    {
      "name": null,
      "longitude": 116.31978243383787,
      "latitude": 40.003396449752614
    }
  ]
},
{
  "_id": {
    "$oid": "6859b2ddae87f6a005bd9fb3"
  },
  "name": "北京邮电大学",
  "majorCategory": "理工类",
  "natureOfRunning": "公办",
  "schoolType": "普通本科",
  "is985": false,
  "is211": true,
  "isDoubleFirstClass": true,
  "province": "北京",
  "city": "北京市",
  "affiliation": "教育部",
  "campuses": [
    {
      "name": null,
      "longitude": 116.282835,
      "latitude": 40.156095
    },
    {
      "name": "海淀校区",
      "latitude": 39.96142318038293,
      "longitude": 116.35781366333687
    },
    {
      "name": "世纪学院",
      "latitude": 40.37141,
      "longitude": 115.893149
    }
  ]
},
{
  "_id": {
    "$oid": "6859b2ddae87f6a005bd9fb4"
  },
  "name": "中国人民大学",
  "majorCategory": "综合类",
  "natureOfRunning": "公办",
  "schoolType": "普通本科",
  "is985": true,
  "is211": true,
  "isDoubleFirstClass": true,
  "province": "北京",
  "city": "北京市",
  "affiliation": "教育部",
  "campuses": [
    {
      "name": null,
      "longitude": 116.30713,
      "latitude": 39.969316
    },
    {
      "name": "苏州校区",
      "latitude": 31.276914,
      "longitude": 120.732933
    }
  ]
},
{
  "_id": {
    "$oid": "6859b2ddae87f6a005bd9fb5"
  },
  "name": "北京师范大学",
  "majorCategory": "师范类",
  "natureOfRunning": "公办",
  "schoolType": "普通本科",
  "is985": true,
  "is211": true,
  "isDoubleFirstClass": true,
  "province": "北京",
  "city": "北京市",
  "affiliation": "教育部",
  "campuses": [
    {
      "name": "北太平庄校区",
      "longitude": 116.356728,
      "latitude": 39.957588
    }
  ]
},
{
  "_id": {
    "$oid": "6859b2ddae87f6a005bd9fb6"
  },
  "name": "北京理工大学",
  "majorCategory": "理工类",
  "natureOfRunning": "公办",
  "schoolType": "普通本科",
  "is985": true,
  "is211": true,
  "isDoubleFirstClass": true,
  "province": "北京",
  "city": "北京市",
  "affiliation": "工业和信息化部",
  "campuses": [
    {
      "name": "中关村校区",
      "longitude": 116.31519530654906,
      "latitude": 39.96092529825822
    },
    {
      "name": "良乡校区",
      "latitude": 39.731782,
      "longitude": 116.17213
    },
    {
      "name": "珠海",
      "latitude": 22.36391,
      "longitude": 113.538301
    }
  ]
},
{
  "_id": {
    "$oid": "6859b2ddae87f6a005bd9fb7"
  },
  "name": "北京航空航天大学",
  "majorCategory": "理工类",
  "natureOfRunning": "公办",
  "schoolType": "普通本科",
  "is985": true,
  "is211": true,
  "isDoubleFirstClass": true,
  "province": "北京",
  "city": "北京市",
  "affiliation": "工业和信息化部",
  "campuses": [
    {
      "name": "学院路校区",
      "longitude": 116.350943,
      "latitude": 39.980626
    },
    {
      "name": "沙河校区",
      "longitude": 116.27045,
      "latitude": 40.153592
    }
  ]
},
{
  "_id": {
    "$oid": "6859b2ddae87f6a005bd9fb8"
  },
  "name": "中央财经大学",
  "majorCategory": "财经类",
  "natureOfRunning": "公办",
  "schoolType": "普通本科",
  "is985": false,
  "is211": true,
  "isDoubleFirstClass": true,
  "province": "北京",
  "city": "北京市",
  "affiliation": "教育部",
  "campuses": [
    {
      "name": "学院南路校区",
      "longitude": 116.342595,
      "latitude": 39.95944
    },
    {
      "name": "沙河校区",
      "longitude": 116.281888,
      "latitude": 40.17146
    }
  ]
},
{
  "_id": {
    "$oid": "6859b2ddae87f6a005bd9fb9"
  },
  "name": "中国传媒大学",
  "majorCategory": "艺术类",
  "natureOfRunning": "公办",
  "schoolType": "普通本科",
  "is985": false,
  "is211": true,
  "isDoubleFirstClass": true,
  "province": "北京",
  "city": "北京市",
  "affiliation": "教育部",
  "campuses": [
    {
      "name": null,
      "longitude": 116.552299,
      "latitude": 39.912262
    }
  ]
},
{
  "_id": {
    "$oid": "6859b2ddae87f6a005bd9fba"
  },
  "name": "北京工业大学",
  "majorCategory": "理工类",
  "natureOfRunning": "公办",
  "schoolType": "普通本科",
  "is985": false,
  "is211": true,
  "isDoubleFirstClass": true,
  "province": "北京",
  "city": "北京市",
  "affiliation": "北京市",
  "campuses": [
    {
      "name": "平乐园校区",
      "longitude": 116.47861,
      "latitude": 39.873377
    },
    {
      "name": "通州校区",
      "longitude": 116.669056,
      "latitude": 39.92954
    }
  ]
},
{
  "_id": {
    "$oid": "6859b2ddae87f6a005bd9fbb"
  },
  "name": "北京交通大学",
  "majorCategory": "理工类",
  "natureOfRunning": "公办",
  "schoolType": "普通本科",
  "is985": false,
  "is211": true,
  "isDoubleFirstClass": true,
  "province": "北京",
  "city": "北京市",
  "affiliation": "教育部",
  "campuses": [
    {
      "name": null,
      "longitude": 116.332095,
      "latitude": 39.949388
    }
  ]
},
{
  "_id": {
    "$oid": "6859b2ddae87f6a005bd9fbc"
  },
  "name": "对外经济贸易大学",
  "majorCategory": "财经类",
  "natureOfRunning": "公办",
  "schoolType": "普通本科",
  "is985": false,
  "is211": true,
  "isDoubleFirstClass": true,
  "province": "北京",
  "city": "北京市",
  "affiliation": "教育部",
  "campuses": [
    {
      "name": null,
      "longitude": 116.421605,
      "latitude": 39.979053
    }
  ]
},
{
  "_id": {
    "$oid": "6859b2ddae87f6a005bd9fbd"
  },
  "name": "华北电力大学",
  "majorCategory": "理工类",
  "natureOfRunning": "公办",
  "schoolType": "普通本科",
  "is985": false,
  "is211": true,
  "isDoubleFirstClass": true,
  "province": "北京",
  "city": "北京市",
  "affiliation": "教育部",
  "campuses": [
    {
      "name": null,
      "longitude": 116.310265,
      "latitude": 40.089405
    },
    {
      "name": "保定校区",
      "latitude": 38.87617680764038,
      "longitude": 115.50544947619628
    },
    {
      "name": "保定校区",
      "latitude": 38.876845,
      "longitude": 115.504677
    }
  ]
},
{
  "_id": {
    "$oid": "6859b2ddae87f6a005bd9fbe"
  },
  "name": "北京科技大学",
  "majorCategory": "理工类",
  "natureOfRunning": "公办",
  "schoolType": "普通本科",
  "is985": false,
  "is211": true,
  "isDoubleFirstClass": true,
  "province": "北京",
  "city": "北京市",
  "affiliation": "教育部",
  "campuses": [
    {
      "name": null,
      "longitude": 116.354227,
      "latitude": 39.986417
    }
  ]
},
{
  "_id": {
    "$oid": "6859b2ddae87f6a005bd9fbf"
  },
  "name": "中国政法大学",
  "majorCategory": "政法类",
  "natureOfRunning": "公办",
  "schoolType": "普通本科",
  "is985": false,
  "is211": true,
  "isDoubleFirstClass": true,
  "province": "北京",
  "city": "北京市",
  "affiliation": "教育部",
  "campuses": [
    {
      "name": null,
      "longitude": 116.241842,
      "latitude": 40.223237
    }
  ]
},
{
  "_id": {
    "$oid": "6859b2ddae87f6a005bd9fc0"
  },
  "name": "中国农业大学",
  "majorCategory": "农林类",
  "natureOfRunning": "公办",
  "schoolType": "普通本科",
  "is985": true,
  "is211": true,
  "isDoubleFirstClass": true,
  "province": "北京",
  "city": "北京市",
  "affiliation": "教育部",
  "campuses": [
    {
      "name": null,
      "longitude": 116.351358,
      "latitude": 40.003022
    },
    {
      "name": "烟台校区",
      "latitude": 37.434419,
      "longitude": 121.521506
    }
  ]
},
{
  "_id": {
    "$oid": "6859b2ddae87f6a005bd9fc1"
  },
  "name": "北京外国语大学",
  "majorCategory": "语言类",
  "natureOfRunning": "公办",
  "schoolType": "普通本科",
  "is985": false,
  "is211": true,
  "isDoubleFirstClass": true,
  "province": "北京",
  "city": "北京市",
  "affiliation": "教育部",
  "campuses": [
    {
      "name": null,
      "longitude": 116.300353,
      "latitude": 39.953862
    }
  ]
},
{
  "_id": {
    "$oid": "6859b2ddae87f6a005bd9fc2"
  },
  "name": "首都师范大学",
  "majorCategory": "师范类",
  "natureOfRunning": "公办",
  "schoolType": "普通本科",
  "is985": false,
  "is211": false,
  "isDoubleFirstClass": true,
  "province": "北京",
  "city": "北京市",
  "affiliation": "北京市",
  "campuses": [
    {
      "name": null,
      "longitude": 116.173088,
      "latitude": 39.711346
    }
  ]
},
{
  "_id": {
    "$oid": "6859b2ddae87f6a005bd9fc3"
  },
  "name": "北京联合大学",
  "majorCategory": "综合类",
  "natureOfRunning": "公办",
  "schoolType": "普通本科",
  "is985": false,
  "is211": false,
  "isDoubleFirstClass": false,
  "province": "北京",
  "city": "北京市",
  "affiliation": "北京市",
  "campuses": [
    {
      "name": null,
      "longitude": 116.420945,
      "latitude": 39.989248
    }
  ]
},
{
  "_id": {
    "$oid": "6859b2ddae87f6a005bd9fc4"
  },
  "name": "中央民族大学",
  "majorCategory": "民族类",
  "natureOfRunning": "公办",
  "schoolType": "普通本科",
  "is985": true,
  "is211": true,
  "isDoubleFirstClass": true,
  "province": "北京",
  "city": "北京市",
  "affiliation": "国家民委",
  "campuses": [
    {
      "name": null,
      "longitude": 116.31445,
      "latitude": 39.949513
    },
    {
      "name": "丰台校区",
      "latitude": 39.81018,
      "longitude": 116.111143
    }
  ]
},
{
  "_id": {
    "$oid": "6859b2ddae87f6a005bd9fc5"
  },
  "name": "北京中医药大学",
  "majorCategory": "医药类",
  "natureOfRunning": "公办",
  "schoolType": "普通本科",
  "is985": false,
  "is211": true,
  "isDoubleFirstClass": true,
  "province": "北京",
  "city": "北京市",
  "affiliation": "教育部",
  "campuses": [
    {
      "name": null,
      "longitude": 116.421747,
      "latitude": 39.969855
    }
  ]
},
{
  "_id": {
    "$oid": "6859b2ddae87f6a005bd9fc6"
  },
  "name": "首都经济贸易大学",
  "majorCategory": "财经类",
  "natureOfRunning": "公办",
  "schoolType": "普通本科",
  "is985": false,
  "is211": false,
  "isDoubleFirstClass": false,
  "province": "北京",
  "city": "北京市",
  "affiliation": "北京市",
  "campuses": [
    {
      "name": "校本部",
      "longitude": 116.323967,
      "latitude": 39.827717
    },
    {
      "name": "红庙校区",
      "longitude": 116.475892,
      "latitude": 39.914651
    }
  ]
},
{
  "_id": {
    "$oid": "6859b2ddae87f6a005bd9fc7"
  },
  "name": "中国人民公安大学",
  "majorCategory": "政法类",
  "natureOfRunning": "公办",
  "schoolType": "普通本科",
  "is985": false,
  "is211": false,
  "isDoubleFirstClass": true,
  "province": "北京",
  "city": "北京市",
  "affiliation": "公安部",
  "campuses": [
    {
      "name": "木樨地校区",
      "longitude": 116.337732,
      "latitude": 39.901683
    },
    {
      "name": "团河校区",
      "longitude": 116.36633,
      "latitude": 39.765815
    }
  ]
},
{
  "_id": {
    "$oid": "6859b2ddae87f6a005bd9fc8"
  },
  "name": "北京林业大学",
  "majorCategory": "农林类",
  "natureOfRunning": "公办",
  "schoolType": "普通本科",
  "is985": false,
  "is211": true,
  "isDoubleFirstClass": true,
  "province": "北京",
  "city": "北京市",
  "affiliation": "教育部",
  "campuses": [
    {
      "name": null,
      "longitude": 116.098806,
      "latitude": 40.063491
    }
  ]
},
{
  "_id": {
    "$oid": "6859b2ddae87f6a005bd9fc9"
  },
  "name": "首都医科大学",
  "majorCategory": "医药类",
  "natureOfRunning": "公办",
  "schoolType": "普通本科",
  "is985": false,
  "is211": false,
  "isDoubleFirstClass": false,
  "province": "北京",
  "city": "北京市",
  "affiliation": "北京市",
  "campuses": [
    {
      "name": null,
      "longitude": 116.317742,
      "latitude": 39.842146
    }
  ]
},
{
  "_id": {
    "$oid": "6859b2ddae87f6a005bd9fca"
  },
  "name": "北京化工大学",
  "majorCategory": "理工类",
  "natureOfRunning": "公办",
  "schoolType": "普通本科",
  "is985": false,
  "is211": true,
  "isDoubleFirstClass": true,
  "province": "北京",
  "city": "北京市",
  "affiliation": "教育部",
  "campuses": [
    {
      "name": null,
      "longitude": 116.414976,
      "latitude": 39.970409
    }
  ]
},
{
  "_id": {
    "$oid": "6859b2ddae87f6a005bd9fcb"
  },
  "name": "北京工商大学",
  "majorCategory": "财经类",
  "natureOfRunning": "公办",
  "schoolType": "普通本科",
  "is985": false,
  "is211": false,
  "isDoubleFirstClass": false,
  "province": "北京",
  "city": "北京市",
  "affiliation": "北京市",
  "campuses": [
    {
      "name": null,
      "longitude": 116.16125,
      "latitude": 39.718435
    }
  ]
},
{
  "_id": {
    "$oid": "6859b2ddae87f6a005bd9fcc"
  },
  "name": "中华女子学院",
  "majorCategory": "语言类",
  "natureOfRunning": "公办",
  "schoolType": "普通本科",
  "is985": false,
  "is211": false,
  "isDoubleFirstClass": false,
  "province": "北京",
  "city": "北京市",
  "affiliation": "中华妇女联合会",
  "campuses": [
    {
      "name": "汇佳校区",
      "longitude": 116.24114,
      "latitude": 40.192824
    },
    {
      "name": null,
      "latitude": 39.994951,
      "longitude": 116.435292
    }
  ]
},
{
  "_id": {
    "$oid": "6859b2ddae87f6a005bd9fcd"
  },
  "name": "中国石油大学（北京）",
  "majorCategory": "理工类",
  "natureOfRunning": "公办",
  "schoolType": "普通本科",
  "is985": false,
  "is211": true,
  "isDoubleFirstClass": true,
  "province": "北京",
  "city": "北京市",
  "affiliation": "教育部",
  "campuses": [
    {
      "name": null,
      "longitude": 116.248931,
      "latitude": 40.214783
    }
  ]
},
{
  "_id": {
    "$oid": "6859b2ddae87f6a005bd9fce"
  },
  "name": "北京语言大学",
  "majorCategory": "语言类",
  "natureOfRunning": "公办",
  "schoolType": "普通本科",
  "is985": false,
  "is211": false,
  "isDoubleFirstClass": false,
  "province": "北京",
  "city": "北京市",
  "affiliation": "教育部",
  "campuses": [
    {
      "name": null,
      "longitude": 116.340116,
      "latitude": 39.993616
    }
  ]
},
{
  "_id": {
    "$oid": "6859b2ddae87f6a005bd9fcf"
  },
  "name": "北京城市学院",
  "majorCategory": "综合类",
  "natureOfRunning": "民办",
  "schoolType": "普通本科",
  "is985": false,
  "is211": false,
  "isDoubleFirstClass": false,
  "province": "北京",
  "city": "北京市",
  "affiliation": "北京市教委",
  "campuses": [
    {
      "name": null,
      "longitude": 116.340626,
      "latitude": 39.986258
    },
    {
      "name": "顺义校区",
      "latitude": 40.1591,
      "longitude": 116.815998
    }
  ]
},
{
  "_id": {
    "$oid": "6859b2ddae87f6a005bd9fd0"
  },
  "name": "北方工业大学",
  "majorCategory": "理工类",
  "natureOfRunning": "公办",
  "schoolType": "普通本科",
  "is985": false,
  "is211": false,
  "isDoubleFirstClass": false,
  "province": "北京",
  "city": "北京市",
  "affiliation": "北京市",
  "campuses": [
    {
      "name": null,
      "longitude": 116.202185,
      "latitude": 39.926784
    }
  ]
},
{
  "_id": {
    "$oid": "6859b2ddae87f6a005bd9fd1"
  },
  "name": "北京建筑大学",
  "majorCategory": "理工类",
  "natureOfRunning": "公办",
  "schoolType": "普通本科",
  "is985": false,
  "is211": false,
  "isDoubleFirstClass": false,
  "province": "北京",
  "city": "北京市",
  "affiliation": "北京市",
  "campuses": [
    {
      "name": "西城校区",
      "longitude": 116.341965,
      "latitude": 39.935213
    },
    {
      "name": "大兴校区",
      "longitude": 116.287907,
      "latitude": 39.746885
    }
  ]
},
{
  "_id": {
    "$oid": "6859b2ddae87f6a005bd9fd2"
  },
  "name": "中国地质大学（北京）",
  "majorCategory": "其他",
  "natureOfRunning": "公办",
  "schoolType": "普通本科",
  "is985": false,
  "is211": true,
  "isDoubleFirstClass": true,
  "province": "北京",
  "city": "北京市",
  "affiliation": "教育部",
  "campuses": [
    {
      "name": null,
      "longitude": 116.345464,
      "latitude": 39.98878
    }
  ]
},
{
  "_id": {
    "$oid": "6859b2ddae87f6a005bd9fd3"
  },
  "name": "中国劳动关系学院",
  "majorCategory": "政法类",
  "natureOfRunning": "公办",
  "schoolType": "普通本科",
  "is985": false,
  "is211": false,
  "isDoubleFirstClass": false,
  "province": "北京",
  "city": "北京市",
  "affiliation": "中华全国总工会",
  "campuses": [
    {
      "name": "北京校区",
      "longitude": 116.317734,
      "latitude": 39.929654
    },
    {
      "name": "涿州校区",
      "longitude": 115.915501,
      "latitude": 39.470438
    }
  ]
},
{
  "_id": {
    "$oid": "6859b2ddae87f6a005bd9fd4"
  },
  "name": "北京信息科技大学",
  "majorCategory": "理工类",
  "natureOfRunning": "公办",
  "schoolType": "普通本科",
  "is985": false,
  "is211": false,
  "isDoubleFirstClass": false,
  "province": "北京",
  "city": "北京市",
  "affiliation": "北京市",
  "campuses": [
    {
      "name": null,
      "longitude": 116.483159,
      "latitude": 39.963659
    },
    {
      "name": "沙河校区",
      "latitude": 40.141008,
      "longitude": 116.237862
    }
  ]
},
{
  "_id": {
    "$oid": "6859b2ddae87f6a005bd9fd5"
  },
  "name": "北京电子科技学院",
  "majorCategory": "理工类",
  "natureOfRunning": "公办",
  "schoolType": "普通本科",
  "is985": false,
  "is211": false,
  "isDoubleFirstClass": false,
  "province": "北京",
  "city": "北京市",
  "affiliation": "中央办公厅",
  "campuses": [
    {
      "name": null,
      "longitude": 116.273684,
      "latitude": 39.836349
    }
  ]
},
{
  "_id": {
    "$oid": "6859b2ddae87f6a005bd9fd6"
  },
  "name": "北京体育大学",
  "majorCategory": "体育类",
  "natureOfRunning": "公办",
  "schoolType": "普通本科",
  "is985": false,
  "is211": true,
  "isDoubleFirstClass": true,
  "province": "北京",
  "city": "北京市",
  "affiliation": "国家体育总局",
  "campuses": [
    {
      "name": null,
      "longitude": 116.312974,
      "latitude": 40.022438
    }
  ]
},
{
  "_id": {
    "$oid": "6859b2ddae87f6a005bd9fd7"
  },
  "name": "北京石油化工学院",
  "majorCategory": "综合类",
  "natureOfRunning": "公办",
  "schoolType": "普通本科",
  "is985": false,
  "is211": false,
  "isDoubleFirstClass": false,
  "province": "北京",
  "city": "北京市",
  "affiliation": "北京市",
  "campuses": [
    {
      "name": null,
      "longitude": 116.307055,
      "latitude": 39.755939
    }
  ]
},
{
  "_id": {
    "$oid": "6859b2ddae87f6a005bd9fd8"
  },
  "name": "国际关系学院",
  "majorCategory": "政法类",
  "natureOfRunning": "公办",
  "schoolType": "普通本科",
  "is985": false,
  "is211": false,
  "isDoubleFirstClass": false,
  "province": "北京",
  "city": "北京市",
  "affiliation": "教育部",
  "campuses": [
    {
      "name": null,
      "longitude": 116.280288,
      "latitude": 40.002565
    }
  ]
},
{
  "_id": {
    "$oid": "6859b2ddae87f6a005bd9fd9"
  },
  "name": "北京物资学院",
  "majorCategory": "财经类",
  "natureOfRunning": "公办",
  "schoolType": "普通本科",
  "is985": false,
  "is211": false,
  "isDoubleFirstClass": false,
  "province": "北京",
  "city": "北京市",
  "affiliation": "北京市",
  "campuses": [
    {
      "name": null,
      "longitude": 116.352166,
      "latitude": 39.868924
    },
    {
      "name": null,
      "latitude": 39.93099112338574,
      "longitude": 116.63829749255451
    }
  ]
},
{
  "_id": {
    "$oid": "6859b2ddae87f6a005bd9fda"
  },
  "name": "北京第二外国语学院",
  "majorCategory": "语言类",
  "natureOfRunning": "公办",
  "schoolType": "普通本科",
  "is985": false,
  "is211": false,
  "isDoubleFirstClass": false,
  "province": "北京",
  "city": "北京市",
  "affiliation": "北京市",
  "campuses": [
    {
      "name": null,
      "longitude": 116.557721,
      "latitude": 39.911696
    }
  ]
},
{
  "_id": {
    "$oid": "6859b2ddae87f6a005bd9fdb"
  },
  "name": "外交学院",
  "majorCategory": "其他",
  "natureOfRunning": "公办",
  "schoolType": "普通本科",
  "is985": false,
  "is211": false,
  "isDoubleFirstClass": true,
  "province": "北京",
  "city": "北京市",
  "affiliation": "外交部",
  "campuses": [
    {
      "name": "展览馆路校区",
      "longitude": 116.344364,
      "latitude": 39.929491
    },
    {
      "name": "沙河校区",
      "longitude": 116.280766,
      "latitude": 40.153877
    }
  ]
},
{
  "_id": {
    "$oid": "6859b2ddae87f6a005bd9fdc"
  },
  "name": "北京服装学院",
  "majorCategory": "艺术类",
  "natureOfRunning": "公办",
  "schoolType": "普通本科",
  "is985": false,
  "is211": false,
  "isDoubleFirstClass": false,
  "province": "北京",
  "city": "北京市",
  "affiliation": "北京市",
  "campuses": [
    {
      "name": "樱花园校区",
      "longitude": 116.431091,
      "latitude": 39.972752
    },
    {
      "name": "芍药居校区",
      "longitude": 116.435117,
      "latitude": 39.979923
    }
  ]
},
{
  "_id": {
    "$oid": "6859b2ddae87f6a005bd9fdd"
  },
  "name": "中国矿业大学（北京）",
  "majorCategory": "理工类",
  "natureOfRunning": "公办",
  "schoolType": "普通本科",
  "is985": false,
  "is211": true,
  "isDoubleFirstClass": true,
  "province": "北京",
  "city": "北京市",
  "affiliation": "教育部",
  "campuses": [
    {
      "name": null,
      "longitude": 116.348374,
      "latitude": 39.997542
    },
    {
      "name": "沙河校区",
      "longitude": 116.169045,
      "latitude": 39.726045
    }
  ]
},
{
  "_id": {
    "$oid": "6859b2ddae87f6a005bd9fde"
  },
  "name": "北京协和医学院",
  "majorCategory": "医药类",
  "natureOfRunning": "公办",
  "schoolType": "普通本科",
  "is985": false,
  "is211": false,
  "isDoubleFirstClass": true,
  "province": "北京",
  "city": "北京市",
  "affiliation": "国家卫生健康委员会",
  "campuses": [
    {
      "name": null,
      "longitude": 116.408594,
      "latitude": 39.909691
    }
  ]
},
{
  "_id": {
    "$oid": "6859b2ddae87f6a005bd9fdf"
  },
  "name": "北京电影学院",
  "majorCategory": "艺术类",
  "natureOfRunning": "公办",
  "schoolType": "普通本科",
  "is985": false,
  "is211": false,
  "isDoubleFirstClass": false,
  "province": "北京",
  "city": "北京市",
  "affiliation": "北京市",
  "campuses": [
    {
      "name": null,
      "longitude": 116.366272,
      "latitude": 40.111114
    }
  ]
},
{
  "_id": {
    "$oid": "6859b2ddae87f6a005bd9fe0"
  },
  "name": "北京大学医学部",
  "majorCategory": "医药类",
  "natureOfRunning": "公办",
  "schoolType": "普通本科",
  "is985": true,
  "is211": true,
  "isDoubleFirstClass": false,
  "province": "北京",
  "city": "北京市",
  "affiliation": "教育部",
  "campuses": [
    {
      "name": null,
      "longitude": 116.349976,
      "latitude": 39.980304
    }
  ]
},
{
  "_id": {
    "$oid": "6859b2ddae87f6a005bd9fe1"
  },
  "name": "首都师范大学科德学院",
  "majorCategory": "艺术类",
  "natureOfRunning": "民办",
  "schoolType": "普通本科",
  "is985": false,
  "is211": false,
  "isDoubleFirstClass": false,
  "province": "北京",
  "city": "北京市",
  "affiliation": "北京市教委",
  "campuses": [
    {
      "name": null,
      "longitude": 116.306271,
      "latitude": 39.511625
    }
  ]
},
{
  "_id": {
    "$oid": "6859b2ddae87f6a005bd9fe2"
  },
  "name": "北京邮电大学世纪学院",
  "majorCategory": "综合类",
  "natureOfRunning": "民办",
  "schoolType": "普通本科",
  "is985": false,
  "is211": false,
  "isDoubleFirstClass": false,
  "province": "北京",
  "city": "北京市",
  "affiliation": "北京市教委",
  "campuses": [
    {
      "name": null,
      "longitude": 116.352124,
      "latitude": 39.959911
    }
  ]
},
{
  "_id": {
    "$oid": "6859b2ddae87f6a005bd9fe3"
  },
  "name": "北京印刷学院",
  "majorCategory": "理工类",
  "natureOfRunning": "公办",
  "schoolType": "普通本科",
  "is985": false,
  "is211": false,
  "isDoubleFirstClass": false,
  "province": "北京",
  "city": "北京市",
  "affiliation": "北京市",
  "campuses": [
    {
      "name": null,
      "longitude": 116.307047,
      "latitude": 39.758117
    }
  ]
},
{
  "_id": {
    "$oid": "6859b2ddae87f6a005bd9fe4"
  },
  "name": "北京工商大学嘉华学院",
  "majorCategory": "财经类",
  "natureOfRunning": "民办",
  "schoolType": "普通本科",
  "is985": false,
  "is211": false,
  "isDoubleFirstClass": false,
  "province": "北京",
  "city": "北京市",
  "affiliation": "北京市教委",
  "campuses": [
    {
      "name": null,
      "longitude": 116.726165,
      "latitude": 39.934516
    }
  ]
},
{
  "_id": {
    "$oid": "6859b2ddae87f6a005bd9fe5"
  },
  "name": "北京农学院",
  "majorCategory": "农林类",
  "natureOfRunning": "公办",
  "schoolType": "普通本科",
  "is985": false,
  "is211": false,
  "isDoubleFirstClass": false,
  "province": "北京",
  "city": "北京市",
  "affiliation": "北京市",
  "campuses": [
    {
      "name": null,
      "longitude": 116.304449,
      "latitude": 40.093661
    }
  ]
},
{
  "_id": {
    "$oid": "6859b2ddae87f6a005bd9fe6"
  },
  "name": "北京工业大学耿丹学院",
  "majorCategory": "综合类",
  "natureOfRunning": "民办",
  "schoolType": "普通本科",
  "is985": false,
  "is211": false,
  "isDoubleFirstClass": false,
  "province": "北京",
  "city": "北京市",
  "affiliation": "北京市教委",
  "campuses": [
    {
      "name": null,
      "longitude": 116.646318,
      "latitude": 40.214468
    }
  ]
},
{
  "_id": {
    "$oid": "6859b2ddae87f6a005bd9fe7"
  },
  "name": "北京第二外国语学院中瑞酒店管理学院",
  "majorCategory": "语言类",
  "natureOfRunning": "民办",
  "schoolType": "普通本科",
  "is985": false,
  "is211": false,
  "isDoubleFirstClass": false,
  "province": "北京",
  "city": "北京市",
  "affiliation": "北京市教委",
  "campuses": [
    {
      "name": null,
      "longitude": 116.557721,
      "latitude": 39.911696
    }
  ]
},
{
  "_id": {
    "$oid": "6859b2ddae87f6a005bd9fe8"
  },
  "name": "北京京北职业技术学院",
  "majorCategory": "理工类",
  "natureOfRunning": "公办",
  "schoolType": "专科（高职）",
  "is985": false,
  "is211": false,
  "isDoubleFirstClass": false,
  "province": "北京",
  "city": "北京市",
  "affiliation": "北京市",
  "campuses": [
    {
      "name": null,
      "longitude": 116.635394,
      "latitude": 40.338039
    }
  ]
},
{
  "_id": {
    "$oid": "6859b2ddae87f6a005bd9fe9"
  },
  "name": "中央戏剧学院",
  "majorCategory": "艺术类",
  "natureOfRunning": "公办",
  "schoolType": "普通本科",
  "is985": false,
  "is211": false,
  "isDoubleFirstClass": true,
  "province": "北京",
  "city": "北京市",
  "affiliation": "教育部",
  "campuses": [
    {
      "name": "东城校区",
      "longitude": 116.404343,
      "latitude": 39.935977
    },
    {
      "name": "昌平校区",
      "longitude": 116.373777,
      "latitude": 40.102921
    }
  ]
},
{
  "_id": {
    "$oid": "6859b2ddae87f6a005bd9fea"
  },
  "name": "中国科学院大学",
  "majorCategory": "综合类",
  "natureOfRunning": "公办",
  "schoolType": "普通本科",
  "is985": false,
  "is211": false,
  "isDoubleFirstClass": true,
  "province": "北京",
  "city": "北京市",
  "affiliation": "中国科学院",
  "campuses": [
    {
      "name": "雁栖湖校区",
      "longitude": 116.682321,
      "latitude": 40.408977
    }
  ]
},
{
  "_id": {
    "$oid": "6859b2ddae87f6a005bd9feb"
  },
  "name": "北京科技职业学院",
  "majorCategory": "理工类",
  "natureOfRunning": "民办",
  "schoolType": "专科（高职）",
  "is985": false,
  "is211": false,
  "isDoubleFirstClass": false,
  "province": "北京",
  "city": "北京市",
  "affiliation": "北京市教委",
  "campuses": [
    {
      "name": null,
      "longitude": 116.25181401656306,
      "latitude": 40.114573834125466
    }
  ]
},
{
  "_id": {
    "$oid": "6859b2ddae87f6a005bd9fec"
  },
  "name": "中国人民解放军陆军装甲兵学院",
  "majorCategory": "军事类",
  "natureOfRunning": "公办",
  "schoolType": "普通本科",
  "is985": false,
  "is211": false,
  "isDoubleFirstClass": false,
  "province": "北京",
  "city": "北京市",
  "affiliation": "解放军总装备部",
  "campuses": [
    {
      "name": null,
      "longitude": 117.051223,
      "latitude": 40.085509
    }
  ]
},
{
  "_id": {
    "$oid": "6859b2ddae87f6a005bd9fed"
  },
  "name": "北京信息职业技术学院",
  "majorCategory": "理工类",
  "natureOfRunning": "公办",
  "schoolType": "专科（高职）",
  "is985": false,
  "is211": false,
  "isDoubleFirstClass": false,
  "province": "北京",
  "city": "北京市",
  "affiliation": "北京市",
  "campuses": [
    {
      "name": "院本部",
      "longitude": 116.482638,
      "latitude": 39.972989
    },
    {
      "name": "东校区",
      "longitude": 116.551202,
      "latitude": 39.965169
    }
  ]
},
{
  "_id": {
    "$oid": "6859b2ddae87f6a005bd9fee"
  },
  "name": "北京电子科技职业学院",
  "majorCategory": "理工类",
  "natureOfRunning": "公办",
  "schoolType": "专科（高职）",
  "is985": false,
  "is211": false,
  "isDoubleFirstClass": false,
  "province": "北京",
  "city": "北京市",
  "affiliation": "北京市",
  "campuses": [
    {
      "name": null,
      "longitude": 116.434021,
      "latitude": 39.95746
    }
  ]
},
{
  "_id": {
    "$oid": "6859b2ddae87f6a005bd9fef"
  },
  "name": "中央美术学院",
  "majorCategory": "艺术类",
  "natureOfRunning": "公办",
  "schoolType": "普通本科",
  "is985": false,
  "is211": false,
  "isDoubleFirstClass": true,
  "province": "北京",
  "city": "北京市",
  "affiliation": "教育部",
  "campuses": [
    {
      "name": "望京校区",
      "longitude": 116.463893,
      "latitude": 39.983546
    },
    {
      "name": "燕郊校区",
      "longitude": 116.784233,
      "latitude": 39.956083
    }
  ]
},
{
  "_id": {
    "$oid": "6859b2ddae87f6a005bd9ff0"
  },
  "name": "北京财贸职业学院",
  "majorCategory": "财经类",
  "natureOfRunning": "公办",
  "schoolType": "专科（高职）",
  "is985": false,
  "is211": false,
  "isDoubleFirstClass": false,
  "province": "北京",
  "city": "北京市",
  "affiliation": "北京市",
  "campuses": [
    {
      "name": "校本部",
      "longitude": 116.667865,
      "latitude": 39.913353
    },
    {
      "name": "涿州校区",
      "longitude": 116.033343,
      "latitude": 39.593785
    }
  ]
},
{
  "_id": {
    "$oid": "6859b2ddae87f6a005bd9ff1"
  },
  "name": "北京工业职业技术学院",
  "majorCategory": "理工类",
  "natureOfRunning": "公办",
  "schoolType": "专科（高职）",
  "is985": false,
  "is211": false,
  "isDoubleFirstClass": false,
  "province": "北京",
  "city": "北京市",
  "affiliation": "北京市",
  "campuses": [
    {
      "name": null,
      "longitude": 116.120933,
      "latitude": 39.960458
    }
  ]
},
{
  "_id": {
    "$oid": "6859b2ddae87f6a005bd9ff2"
  },
  "name": "首钢工学院",
  "majorCategory": "理工类",
  "natureOfRunning": "公办",
  "schoolType": "普通本科",
  "is985": false,
  "is211": false,
  "isDoubleFirstClass": false,
  "province": "北京",
  "city": "北京市",
  "affiliation": "北京市",
  "campuses": [
    {
      "name": null,
      "longitude": 116.20129,
      "latitude": 39.926305
    }
  ]
},
{
  "_id": {
    "$oid": "6859b2ddae87f6a005bd9ff3"
  },
  "name": "中国社会科学院大学",
  "majorCategory": "其他",
  "natureOfRunning": "公办",
  "schoolType": "普通本科",
  "is985": false,
  "is211": false,
  "isDoubleFirstClass": false,
  "province": "北京",
  "city": "北京市",
  "affiliation": "中国社会科学院",
  "campuses": [
    {
      "name": null,
      "longitude": 116.174167,
      "latitude": 39.738489
    }
  ]
},
{
  "_id": {
    "$oid": "6859b2ddae87f6a005bd9ff4"
  },
  "name": "中央音乐学院",
  "majorCategory": "艺术类",
  "natureOfRunning": "公办",
  "schoolType": "普通本科",
  "is985": false,
  "is211": true,
  "isDoubleFirstClass": true,
  "province": "北京",
  "city": "北京市",
  "affiliation": "教育部",
  "campuses": [
    {
      "name": null,
      "longitude": 116.399887,
      "latitude": 39.911627
    }
  ]
},
{
  "_id": {
    "$oid": "6859b2ddae87f6a005bd9ff5"
  },
  "name": "北京青年政治学院",
  "majorCategory": "语言类",
  "natureOfRunning": "公办",
  "schoolType": "专科（高职）",
  "is985": false,
  "is211": false,
  "isDoubleFirstClass": false,
  "province": "北京",
  "city": "北京市",
  "affiliation": "北京市",
  "campuses": [
    {
      "name": null,
      "longitude": 116.468542,
      "latitude": 39.979775
    }
  ]
},
{
  "_id": {
    "$oid": "6859b2ddae87f6a005bd9ff6"
  },
  "name": "北京科技经营管理学院",
  "majorCategory": "财经类",
  "natureOfRunning": "民办",
  "schoolType": "专科（高职）",
  "is985": false,
  "is211": false,
  "isDoubleFirstClass": false,
  "province": "北京",
  "city": "北京市",
  "affiliation": "北京市教委",
  "campuses": [
    {
      "name": null,
      "longitude": 116.284,
      "latitude": 40.142685
    }
  ]
},
{
  "_id": {
    "$oid": "6859b2ddae87f6a005bd9ff7"
  },
  "name": "北京政法职业学院",
  "majorCategory": "政法类",
  "natureOfRunning": "公办",
  "schoolType": "专科（高职）",
  "is985": false,
  "is211": false,
  "isDoubleFirstClass": false,
  "province": "北京",
  "city": "北京市",
  "affiliation": "北京市",
  "campuses": [
    {
      "name": null,
      "longitude": 116.507715,
      "latitude": 39.917153
    }
  ]
},
{
  "_id": {
    "$oid": "6859b2ddae87f6a005bd9ff8"
  },
  "name": "首都体育学院",
  "majorCategory": "体育类",
  "natureOfRunning": "公办",
  "schoolType": "普通本科",
  "is985": false,
  "is211": false,
  "isDoubleFirstClass": false,
  "province": "北京",
  "city": "北京市",
  "affiliation": "北京市",
  "campuses": [
    {
      "name": null,
      "longitude": 116.105977,
      "latitude": 40.078008
    }
  ]
},
{
  "_id": {
    "$oid": "6859b2ddae87f6a005bd9ff9"
  },
  "name": "中国人民解放军战略支援部队航天工程大学",
  "majorCategory": "军事类",
  "natureOfRunning": "公办",
  "schoolType": "普通本科",
  "is985": false,
  "is211": false,
  "isDoubleFirstClass": false,
  "province": "北京",
  "city": "北京市",
  "affiliation": "解放军总装备部",
  "campuses": [
    {
      "name": null,
      "longitude": 116.263631,
      "latitude": 40.153429
    }
  ]
},
{
  "_id": {
    "$oid": "6859b2ddae87f6a005bd9ffa"
  },
  "name": "北京培黎职业学院",
  "majorCategory": "财经类",
  "natureOfRunning": "民办",
  "schoolType": "专科（高职）",
  "is985": false,
  "is211": false,
  "isDoubleFirstClass": false,
  "province": "北京",
  "city": "北京市",
  "affiliation": "北京市教委",
  "campuses": [
    {
      "name": null,
      "longitude": 116.339181,
      "latitude": 40.019547
    }
  ]
},
{
  "_id": {
    "$oid": "6859b2ddae87f6a005bd9ffb"
  },
  "name": "北京劳动保障职业学院",
  "majorCategory": "财经类",
  "natureOfRunning": "公办",
  "schoolType": "专科（高职）",
  "is985": false,
  "is211": false,
  "isDoubleFirstClass": false,
  "province": "北京",
  "city": "北京市",
  "affiliation": "北京市",
  "campuses": [
    {
      "name": "南校区",
      "longitude": 116.423834,
      "latitude": 39.985567
    },
    {
      "name": "北校区",
      "longitude": 116.126503,
      "latitude": 40.243388
    }
  ]
},
{
  "_id": {
    "$oid": "6859b2ddae87f6a005bd9ffc"
  },
  "name": "北京舞蹈学院",
  "majorCategory": "艺术类",
  "natureOfRunning": "公办",
  "schoolType": "普通本科",
  "is985": false,
  "is211": false,
  "isDoubleFirstClass": false,
  "province": "北京",
  "city": "北京市",
  "affiliation": "北京市",
  "campuses": [
    {
      "name": null,
      "longitude": 116.313114,
      "latitude": 39.945738
    }
  ]
},
{
  "_id": {
    "$oid": "6859b2ddae87f6a005bd9ffd"
  },
  "name": "北京经贸职业学院",
  "majorCategory": "财经类",
  "natureOfRunning": "民办",
  "schoolType": "专科（高职）",
  "is985": false,
  "is211": false,
  "isDoubleFirstClass": false,
  "province": "北京",
  "city": "北京市",
  "affiliation": "北京市教委",
  "campuses": [
    {
      "name": null,
      "longitude": 116.158038,
      "latitude": 39.720221
    }
  ]
},
{
  "_id": {
    "$oid": "6859b2ddae87f6a005bd9ffe"
  },
  "name": "北京农业职业学院",
  "majorCategory": "农林类",
  "natureOfRunning": "公办",
  "schoolType": "专科（高职）",
  "is985": false,
  "is211": false,
  "isDoubleFirstClass": false,
  "province": "北京",
  "city": "北京市",
  "affiliation": "北京市",
  "campuses": [
    {
      "name": "南校区",
      "longitude": 116.223384,
      "latitude": 39.771347
    },
    {
      "name": "北校区",
      "longitude": 116.215855,
      "latitude": 39.982685
    }
  ]
},
{
  "_id": {
    "$oid": "6859b2ddae87f6a005bd9fff"
  },
  "name": "北京交通职业技术学院",
  "majorCategory": "理工类",
  "natureOfRunning": "公办",
  "schoolType": "专科（高职）",
  "is985": false,
  "is211": false,
  "isDoubleFirstClass": false,
  "province": "北京",
  "city": "北京市",
  "affiliation": "北京市",
  "campuses": [
    {
      "name": null,
      "longitude": 116.198122,
      "latitude": 40.227979
    }
  ]
},
{
  "_id": {
    "$oid": "6859b2ddae87f6a005bda000"
  },
  "name": "北京经济技术职业学院",
  "majorCategory": "财经类",
  "natureOfRunning": "民办",
  "schoolType": "专科（高职）",
  "is985": false,
  "is211": false,
  "isDoubleFirstClass": false,
  "province": "北京",
  "city": "北京市",
  "affiliation": "北京市教委",
  "campuses": [
    {
      "name": null,
      "longitude": 116.468558,
      "latitude": 39.982511
    }
  ]
},
{
  "_id": {
    "$oid": "6859b2ddae87f6a005bda001"
  },
  "name": "中国人民解放军陆军防化学院",
  "majorCategory": "军事类",
  "natureOfRunning": "公办",
  "schoolType": "普通本科",
  "is985": false,
  "is211": false,
  "isDoubleFirstClass": false,
  "province": "北京",
  "city": "北京市",
  "affiliation": "解放军总参谋部",
  "campuses": [
    {
      "name": null,
      "longitude": 116.36005,
      "latitude": 40.185001
    }
  ]
},
{
  "_id": {
    "$oid": "6859b2ddae87f6a005bda002"
  },
  "name": "北京经济管理职业学院",
  "majorCategory": "财经类",
  "natureOfRunning": "公办",
  "schoolType": "专科（高职）",
  "is985": false,
  "is211": false,
  "isDoubleFirstClass": false,
  "province": "北京",
  "city": "北京市",
  "affiliation": "北京市",
  "campuses": [
    {
      "name": "望京校区",
      "longitude": 116.474454,
      "latitude": 39.983905
    },
    {
      "name": "固安校区",
      "longitude": 116.344622,
      "latitude": 39.782127
    }
  ]
},
{
  "_id": {
    "$oid": "6859b2ddae87f6a005bda003"
  },
  "name": "北京北大方正软件职业技术学院",
  "majorCategory": "综合类",
  "natureOfRunning": "民办",
  "schoolType": "专科（高职）",
  "is985": false,
  "is211": false,
  "isDoubleFirstClass": false,
  "province": "北京",
  "city": "北京市",
  "affiliation": "北京市教委",
  "campuses": [
    {
      "name": null,
      "longitude": 116.345235,
      "latitude": 40.030962
    }
  ]
},
{
  "_id": {
    "$oid": "6859b2ddae87f6a005bda004"
  },
  "name": "北京汇佳职业学院",
  "majorCategory": "语言类",
  "natureOfRunning": "民办",
  "schoolType": "专科（高职）",
  "is985": false,
  "is211": false,
  "isDoubleFirstClass": false,
  "province": "北京",
  "city": "北京市",
  "affiliation": "北京市教委",
  "campuses": [
    {
      "name": null,
      "longitude": 116.237702,
      "latitude": 40.192646
    }
  ]
},
{
  "_id": {
    "$oid": "6859b2ddae87f6a005bda005"
  },
  "name": "北京交通运输职业学院",
  "majorCategory": "综合类",
  "natureOfRunning": "公办",
  "schoolType": "专科（高职）",
  "is985": false,
  "is211": false,
  "isDoubleFirstClass": false,
  "province": "北京",
  "city": "北京市",
  "affiliation": "北京市",
  "campuses": [
    {
      "name": "大兴校区",
      "longitude": 116.327756,
      "latitude": 39.743711
    },
    {
      "name": "海淀校区",
      "longitude": 116.337713,
      "latitude": 40.051272
    }
  ]
},
{
  "_id": {
    "$oid": "6859b2ddae87f6a005bda006"
  },
  "name": "北京警察学院",
  "majorCategory": "政法类",
  "natureOfRunning": "公办",
  "schoolType": "普通本科",
  "is985": false,
  "is211": false,
  "isDoubleFirstClass": false,
  "province": "北京",
  "city": "北京市",
  "affiliation": "北京市",
  "campuses": [
    {
      "name": null,
      "longitude": 116.165852,
      "latitude": 40.253044
    }
  ]
},
{
  "_id": {
    "$oid": "6859b2ddae87f6a005bda007"
  },
  "name": "中国戏曲学院",
  "majorCategory": "艺术类",
  "natureOfRunning": "公办",
  "schoolType": "普通本科",
  "is985": false,
  "is211": false,
  "isDoubleFirstClass": false,
  "province": "北京",
  "city": "北京市",
  "affiliation": "北京市",
  "campuses": [
    {
      "name": null,
      "longitude": 116.326548,
      "latitude": 39.862497
    }
  ]
},
{
  "_id": {
    "$oid": "6859b2ddae87f6a005bda008"
  },
  "name": "中国音乐学院",
  "majorCategory": "艺术类",
  "natureOfRunning": "公办",
  "schoolType": "普通本科",
  "is985": false,
  "is211": false,
  "isDoubleFirstClass": true,
  "province": "北京",
  "city": "北京市",
  "affiliation": "北京市",
  "campuses": [
    {
      "name": null,
      "longitude": 116.372893,
      "latitude": 39.990227
    }
  ]
},
{
  "_id": {
    "$oid": "6859b2ddae87f6a005bda009"
  },
  "name": "北京戏曲艺术职业学院",
  "majorCategory": "艺术类",
  "natureOfRunning": "公办",
  "schoolType": "专科（高职）",
  "is985": false,
  "is211": false,
  "isDoubleFirstClass": false,
  "province": "北京",
  "city": "北京市",
  "affiliation": "北京市",
  "campuses": [
    {
      "name": null,
      "longitude": 116.371061,
      "latitude": 39.854269
    }
  ]
},
{
  "_id": {
    "$oid": "6859b2ddae87f6a005bda00a"
  },
  "name": "北京社会管理职业学院",
  "majorCategory": "政法类",
  "natureOfRunning": "公办",
  "schoolType": "专科（高职）",
  "is985": false,
  "is211": false,
  "isDoubleFirstClass": false,
  "province": "北京",
  "city": "北京市",
  "affiliation": "北京市",
  "campuses": [
    {
      "name": null,
      "longitude": 116.369621,
      "latitude": 39.754001
    }
  ]
},
{
  "_id": {
    "$oid": "6859b2ddae87f6a005bda00b"
  },
  "name": "北京卫生职业学院",
  "majorCategory": "医药类",
  "natureOfRunning": "公办",
  "schoolType": "专科（高职）",
  "is985": false,
  "is211": false,
  "isDoubleFirstClass": false,
  "province": "北京",
  "city": "北京市",
  "affiliation": "北京市",
  "campuses": [
    {
      "name": null,
      "longitude": 116.662786,
      "latitude": 39.884187
    }
  ]
},
{
  "_id": {
    "$oid": "6859b2ddae87f6a005bda00c"
  },
  "name": "中国消防救援学院",
  "majorCategory": "军事类",
  "natureOfRunning": "公办",
  "schoolType": "普通本科",
  "is985": false,
  "is211": false,
  "isDoubleFirstClass": false,
  "province": "北京",
  "city": "北京市",
  "affiliation": "应急管理部",
  "campuses": [
    {
      "name": null,
      "longitude": 116.08113,
      "latitude": 40.200638
    }
  ]
},
{
  "_id": {
    "$oid": "6859b2ddae87f6a005bda00d"
  },
  "name": "北京艺术传媒职业学院",
  "majorCategory": "财经类",
  "natureOfRunning": "民办",
  "schoolType": "专科（高职）",
  "is985": false,
  "is211": false,
  "isDoubleFirstClass": false,
  "province": "北京",
  "city": "北京市",
  "affiliation": "北京市教委",
  "campuses": [
    {
      "name": null,
      "longitude": 116.113816,
      "latitude": 40.097803
    }
  ]
},
{
  "_id": {
    "$oid": "6859b2ddae87f6a005bda00e"
  },
  "name": "北京体育职业学院",
  "majorCategory": "体育类",
  "natureOfRunning": "公办",
  "schoolType": "专科（高职）",
  "is985": false,
  "is211": false,
  "isDoubleFirstClass": false,
  "province": "北京",
  "city": "北京市",
  "affiliation": "北京市",
  "campuses": [
    {
      "name": "院本部",
      "longitude": 116.411153,
      "latitude": 39.853403
    },
    {
      "name": "分校区",
      "longitude": 116.501799,
      "latitude": 39.617814
    }
  ]
},
{
  "_id": {
    "$oid": "6859b2ddae87f6a005bda00f"
  },
  "name": "中国人民解放军国防大学",
  "majorCategory": "军事类",
  "natureOfRunning": "公办",
  "schoolType": "普通本科",
  "is985": false,
  "is211": false,
  "isDoubleFirstClass": false,
  "province": "北京",
  "city": "北京市",
  "affiliation": "中国共产党中央军事委员会",
  "campuses": [
    {
      "name": null,
      "longitude": 116.30713,
      "latitude": 39.969316
    }
  ]
},
{
  "_id": {
    "$oid": "6859b2ddae87f6a005bda010"
  },
  "name": "北京网络职业学院",
  "majorCategory": "理工类",
  "natureOfRunning": "民办",
  "schoolType": "专科（高职）",
  "is985": false,
  "is211": false,
  "isDoubleFirstClass": false,
  "province": "北京",
  "city": "北京市",
  "affiliation": "北京市教委",
  "campuses": [
    {
      "name": null,
      "longitude": 116.062349,
      "latitude": 39.687552
    }
  ]
},
{
  "_id": {
    "$oid": "6859b2ddae87f6a005bda011"
  },
  "name": "中国人民武装警察部队特种警察学院",
  "majorCategory": "军事类",
  "natureOfRunning": "公办",
  "schoolType": "普通本科",
  "is985": false,
  "is211": false,
  "isDoubleFirstClass": false,
  "province": "北京",
  "city": "北京市",
  "affiliation": "0",
  "campuses": [
    {
      "name": null,
      "longitude": 116.165852,
      "latitude": 40.253044
    }
  ]
},
{
  "_id": {
    "$oid": "6859b2ddae87f6a005bda012"
  },
  "name": "天津大学",
  "majorCategory": "理工类",
  "natureOfRunning": "公办",
  "schoolType": "普通本科",
  "is985": true,
  "is211": true,
  "isDoubleFirstClass": true,
  "province": "天津",
  "city": "天津市",
  "affiliation": "教育部",
  "campuses": [
    {
      "name": null,
      "longitude": 117.315627,
      "latitude": 39.003111
    },
    {
      "name": "卫津路校区",
      "latitude": 39.11011020378067,
      "longitude": 117.17577434856815
    }
  ]
},
{
  "_id": {
    "$oid": "6859b2ddae87f6a005bda013"
  },
  "name": "南开大学",
  "majorCategory": "综合类",
  "natureOfRunning": "公办",
  "schoolType": "普通本科",
  "is985": true,
  "is211": true,
  "isDoubleFirstClass": true,
  "province": "天津",
  "city": "天津市",
  "affiliation": "教育部",
  "campuses": [
    {
      "name": null,
      "longitude": 117.334788,
      "latitude": 38.984468
    },
    {
      "name": "八里台校区",
      "latitude": 39.103751,
      "longitude": 117.167273
    }
  ]
},
{
  "_id": {
    "$oid": "6859b2ddae87f6a005bda014"
  },
  "name": "天津理工大学",
  "majorCategory": "理工类",
  "natureOfRunning": "公办",
  "schoolType": "普通本科",
  "is985": false,
  "is211": false,
  "isDoubleFirstClass": false,
  "province": "天津",
  "city": "天津市",
  "affiliation": "天津市",
  "campuses": [
    {
      "name": null,
      "longitude": 117.135249,
      "latitude": 39.05906
    }
  ]
},
{
  "_id": {
    "$oid": "6859b2ddae87f6a005bda015"
  },
  "name": "中国民航大学",
  "majorCategory": "理工类",
  "natureOfRunning": "公办",
  "schoolType": "普通本科",
  "is985": false,
  "is211": false,
  "isDoubleFirstClass": false,
  "province": "天津",
  "city": "天津市",
  "affiliation": "交通运输部",
  "campuses": [
    {
      "name": null,
      "longitude": 117.352776,
      "latitude": 39.108974
    }
  ]
},
{
  "_id": {
    "$oid": "6859b2ddae87f6a005bda016"
  },
  "name": "天津科技大学",
  "majorCategory": "理工类",
  "natureOfRunning": "公办",
  "schoolType": "普通本科",
  "is985": false,
  "is211": false,
  "isDoubleFirstClass": false,
  "province": "天津",
  "city": "天津市",
  "affiliation": "天津市",
  "campuses": [
    {
      "name": null,
      "longitude": 117.692932,
      "latitude": 39.087531
    },
    {
      "name": "河西校区",
      "latitude": 39.068818,
      "longitude": 117.272677
    }
  ]
},
{
  "_id": {
    "$oid": "6859b2ddae87f6a005bda017"
  },
  "name": "天津师范大学",
  "majorCategory": "师范类",
  "natureOfRunning": "公办",
  "schoolType": "普通本科",
  "is985": false,
  "is211": false,
  "isDoubleFirstClass": false,
  "province": "天津",
  "city": "天津市",
  "affiliation": "天津市",
  "campuses": [
    {
      "name": null,
      "longitude": 117.176458,
      "latitude": 39.099143
    }
  ]
},
{
  "_id": {
    "$oid": "6859b2ddae87f6a005bda018"
  },
  "name": "天津商业大学",
  "majorCategory": "财经类",
  "natureOfRunning": "公办",
  "schoolType": "普通本科",
  "is985": false,
  "is211": false,
  "isDoubleFirstClass": false,
  "province": "天津",
  "city": "天津市",
  "affiliation": "天津市",
  "campuses": [
    {
      "name": null,
      "longitude": 117.131448,
      "latitude": 39.151929
    }
  ]
},
{
  "_id": {
    "$oid": "6859b2ddae87f6a005bda019"
  },
  "name": "天津财经大学",
  "majorCategory": "财经类",
  "natureOfRunning": "公办",
  "schoolType": "普通本科",
  "is985": false,
  "is211": false,
  "isDoubleFirstClass": false,
  "province": "天津",
  "city": "天津市",
  "affiliation": "天津市",
  "campuses": [
    {
      "name": null,
      "longitude": 117.200546,
      "latitude": 39.107493
    }
  ]
},
{
  "_id": {
    "$oid": "6859b2ddae87f6a005bda01a"
  },
  "name": "天津工业大学",
  "majorCategory": "理工类",
  "natureOfRunning": "公办",
  "schoolType": "普通本科",
  "is985": false,
  "is211": false,
  "isDoubleFirstClass": true,
  "province": "天津",
  "city": "天津市",
  "affiliation": "天津市",
  "campuses": [
    {
      "name": null,
      "longitude": 117.108233,
      "latitude": 39.064346
    }
  ]
},
{
  "_id": {
    "$oid": "6859b2ddae87f6a005bda01b"
  },
  "name": "天津医科大学",
  "majorCategory": "医药类",
  "natureOfRunning": "公办",
  "schoolType": "普通本科",
  "is985": false,
  "is211": true,
  "isDoubleFirstClass": true,
  "province": "天津",
  "city": "天津市",
  "affiliation": "天津市",
  "campuses": [
    {
      "name": null,
      "longitude": 116.917671,
      "latitude": 38.925264
    }
  ]
},
{
  "_id": {
    "$oid": "6859b2ddae87f6a005bda01c"
  },
  "name": "河北工业大学",
  "majorCategory": "理工类",
  "natureOfRunning": "公办",
  "schoolType": "普通本科",
  "is985": false,
  "is211": true,
  "isDoubleFirstClass": true,
  "province": "天津",
  "city": "天津市",
  "affiliation": "河北省",
  "campuses": [
    {
      "name": "红桥校区",
      "longitude": 117.166313,
      "latitude": 39.178987
    },
    {
      "name": "北辰校区",
      "latitude": 39.23693019029195,
      "longitude": 117.05705780994154
    }
  ]
},
{
  "_id": {
    "$oid": "6859b2ddae87f6a005bda01d"
  },
  "name": "天津外国语大学",
  "majorCategory": "语言类",
  "natureOfRunning": "公办",
  "schoolType": "普通本科",
  "is985": false,
  "is211": false,
  "isDoubleFirstClass": false,
  "province": "天津",
  "city": "天津市",
  "affiliation": "天津市",
  "campuses": [
    {
      "name": null,
      "longitude": 117.203859,
      "latitude": 39.107122
    }
  ]
},
{
  "_id": {
    "$oid": "6859b2ddae87f6a005bda01e"
  },
  "name": "天津城建大学",
  "majorCategory": "综合类",
  "natureOfRunning": "公办",
  "schoolType": "普通本科",
  "is985": false,
  "is211": false,
  "isDoubleFirstClass": false,
  "province": "天津",
  "city": "天津市",
  "affiliation": "天津市",
  "campuses": [
    {
      "name": null,
      "longitude": 117.089013,
      "latitude": 39.093789
    }
  ]
},
{
  "_id": {
    "$oid": "6859b2ddae87f6a005bda01f"
  },
  "name": "天津中医药大学",
  "majorCategory": "医药类",
  "natureOfRunning": "公办",
  "schoolType": "普通本科",
  "is985": false,
  "is211": false,
  "isDoubleFirstClass": true,
  "province": "天津",
  "city": "天津市",
  "affiliation": "天津市",
  "campuses": [
    {
      "name": null,
      "longitude": 117.06468,
      "latitude": 38.952193
    }
  ]
},
{
  "_id": {
    "$oid": "6859b2ddae87f6a005bda020"
  },
  "name": "南开大学滨海学院",
  "majorCategory": "综合类",
  "natureOfRunning": "民办",
  "schoolType": "普通本科",
  "is985": false,
  "is211": false,
  "isDoubleFirstClass": false,
  "province": "天津",
  "city": "天津市",
  "affiliation": "天津市教委",
  "campuses": [
    {
      "name": null,
      "longitude": 117.44311,
      "latitude": 38.861253
    }
  ]
},
{
  "_id": {
    "$oid": "6859b2ddae87f6a005bda021"
  },
  "name": "天津职业技术师范大学",
  "majorCategory": "师范类",
  "natureOfRunning": "公办",
  "schoolType": "普通本科",
  "is985": false,
  "is211": false,
  "isDoubleFirstClass": false,
  "province": "天津",
  "city": "天津市",
  "affiliation": "天津市",
  "campuses": [
    {
      "name": null,
      "longitude": 117.289988,
      "latitude": 39.058336
    }
  ]
},
{
  "_id": {
    "$oid": "6859b2ddae87f6a005bda022"
  },
  "name": "天津农学院",
  "majorCategory": "农林类",
  "natureOfRunning": "公办",
  "schoolType": "普通本科",
  "is985": false,
  "is211": false,
  "isDoubleFirstClass": false,
  "province": "天津",
  "city": "天津市",
  "affiliation": "天津市",
  "campuses": [
    {
      "name": null,
      "longitude": 116.969007,
      "latitude": 39.160498
    }
  ]
},
{
  "_id": {
    "$oid": "6859b2ddae87f6a005bda023"
  },
  "name": "天津职业大学",
  "majorCategory": "综合类",
  "natureOfRunning": "公办",
  "schoolType": "专科（高职）",
  "is985": false,
  "is211": false,
  "isDoubleFirstClass": false,
  "province": "天津",
  "city": "天津市",
  "affiliation": "天津市教委",
  "campuses": [
    {
      "name": null,
      "longitude": 117.182534,
      "latitude": 39.229242
    }
  ]
},
{
  "_id": {
    "$oid": "6859b2ddae87f6a005bda024"
  },
  "name": "北京科技大学天津学院",
  "majorCategory": "综合类",
  "natureOfRunning": "民办",
  "schoolType": "普通本科",
  "is985": false,
  "is211": false,
  "isDoubleFirstClass": false,
  "province": "天津",
  "city": "天津市",
  "affiliation": "天津市教委",
  "campuses": [
    {
      "name": null,
      "longitude": 117.389297,
      "latitude": 39.544199
    }
  ]
},
{
  "_id": {
    "$oid": "6859b2ddae87f6a005bda025"
  },
  "name": "天津财经大学珠江学院",
  "majorCategory": "综合类",
  "natureOfRunning": "民办",
  "schoolType": "普通本科",
  "is985": false,
  "is211": false,
  "isDoubleFirstClass": false,
  "province": "天津",
  "city": "天津市",
  "affiliation": "天津市教委",
  "campuses": [
    {
      "name": null,
      "longitude": 117.399374,
      "latitude": 39.550046
    }
  ]
},
{
  "_id": {
    "$oid": "6859b2ddae87f6a005bda026"
  },
  "name": "天津仁爱学院",
  "majorCategory": "综合类",
  "natureOfRunning": "民办",
  "schoolType": "普通本科",
  "is985": false,
  "is211": false,
  "isDoubleFirstClass": false,
  "province": "天津",
  "city": "天津市",
  "affiliation": "天津市",
  "campuses": [
    {
      "name": null,
      "longitude": 117.150508,
      "latitude": 38.884396
    }
  ]
},
{
  "_id": {
    "$oid": "6859b2ddae87f6a005bda027"
  },
  "name": "天津医科大学临床医学院",
  "majorCategory": "医药类",
  "natureOfRunning": "民办",
  "schoolType": "普通本科",
  "is985": false,
  "is211": false,
  "isDoubleFirstClass": false,
  "province": "天津",
  "city": "天津市",
  "affiliation": "天津市教委",
  "campuses": [
    {
      "name": null,
      "longitude": 117.457143,
      "latitude": 38.865967
    }
  ]
},
{
  "_id": {
    "$oid": "6859b2ddae87f6a005bda028"
  },
  "name": "天津中德应用技术大学",
  "majorCategory": "理工类",
  "natureOfRunning": "公办",
  "schoolType": "普通本科",
  "is985": false,
  "is211": false,
  "isDoubleFirstClass": false,
  "province": "天津",
  "city": "天津市",
  "affiliation": "天津市",
  "campuses": [
    {
      "name": null,
      "longitude": 117.379727,
      "latitude": 39.010095
    }
  ]
},
{
  "_id": {
    "$oid": "6859b2ddae87f6a005bda029"
  },
  "name": "天津天狮学院",
  "majorCategory": "综合类",
  "natureOfRunning": "民办",
  "schoolType": "普通本科",
  "is985": false,
  "is211": false,
  "isDoubleFirstClass": false,
  "province": "天津",
  "city": "天津市",
  "affiliation": "天津市教委",
  "campuses": [
    {
      "name": null,
      "longitude": 117.032631,
      "latitude": 39.428187
    }
  ]
},
{
  "_id": {
    "$oid": "6859b2ddae87f6a005bda02a"
  },
  "name": "天津体育学院",
  "majorCategory": "体育类",
  "natureOfRunning": "公办",
  "schoolType": "普通本科",
  "is985": false,
  "is211": false,
  "isDoubleFirstClass": false,
  "province": "天津",
  "city": "天津市",
  "affiliation": "天津市",
  "campuses": [
    {
      "name": null,
      "longitude": 117.053235,
      "latitude": 38.952137
    }
  ]
},
{
  "_id": {
    "$oid": "6859b2ddae87f6a005bda02b"
  },
  "name": "天津师范大学津沽学院",
  "majorCategory": "综合类",
  "natureOfRunning": "民办",
  "schoolType": "普通本科",
  "is985": false,
  "is211": false,
  "isDoubleFirstClass": false,
  "province": "天津",
  "city": "天津市",
  "affiliation": "天津市教委",
  "campuses": [
    {
      "name": null,
      "longitude": 117.117874,
      "latitude": 39.054172
    }
  ]
},
{
  "_id": {
    "$oid": "6859b2ddae87f6a005bda02c"
  },
  "name": "天津医学高等专科学校",
  "majorCategory": "医药类",
  "natureOfRunning": "公办",
  "schoolType": "专科（高职）",
  "is985": false,
  "is211": false,
  "isDoubleFirstClass": false,
  "province": "天津",
  "city": "天津市",
  "affiliation": "天津市",
  "campuses": [
    {
      "name": null,
      "longitude": 117.281237,
      "latitude": 39.072977
    }
  ]
},
{
  "_id": {
    "$oid": "6859b2ddae87f6a005bda02d"
  },
  "name": "天津理工大学中环信息学院",
  "majorCategory": "综合类",
  "natureOfRunning": "民办",
  "schoolType": "普通本科",
  "is985": false,
  "is211": false,
  "isDoubleFirstClass": false,
  "province": "天津",
  "city": "天津市",
  "affiliation": "天津市教委",
  "campuses": [
    {
      "name": null,
      "longitude": 117.019217,
      "latitude": 39.126777
    },
    {
      "name": "海河园院区",
      "longitude": 117.335961,
      "latitude": 38.99506
    },
    {
      "name": "海河园校区",
      "latitude": 39.00639,
      "longitude": 117.370164
    }
  ]
},
{
  "_id": {
    "$oid": "6859b2ddae87f6a005bda02e"
  },
  "name": "天津外国语大学滨海外事学院",
  "majorCategory": "语言类",
  "natureOfRunning": "民办",
  "schoolType": "普通本科",
  "is985": false,
  "is211": false,
  "isDoubleFirstClass": false,
  "province": "天津",
  "city": "天津市",
  "affiliation": "天津市教委",
  "campuses": [
    {
      "name": null,
      "longitude": 117.46167,
      "latitude": 38.860909
    }
  ]
},
{
  "_id": {
    "$oid": "6859b2ddae87f6a005bda02f"
  },
  "name": "天津滨海职业学院",
  "majorCategory": "综合类",
  "natureOfRunning": "公办",
  "schoolType": "专科（高职）",
  "is985": false,
  "is211": false,
  "isDoubleFirstClass": false,
  "province": "天津",
  "city": "天津市",
  "affiliation": "天津市",
  "campuses": [
    {
      "name": null,
      "longitude": 117.643381,
      "latitude": 39.029284
    }
  ]
},
{
  "_id": {
    "$oid": "6859b2ddae87f6a005bda030"
  },
  "name": "天津商业大学宝德学院",
  "majorCategory": "财经类",
  "natureOfRunning": "民办",
  "schoolType": "普通本科",
  "is985": false,
  "is211": false,
  "isDoubleFirstClass": false,
  "province": "天津",
  "city": "天津市",
  "affiliation": "天津市教委",
  "campuses": [
    {
      "name": null,
      "longitude": 117.086519,
      "latitude": 39.09069
    }
  ]
},
{
  "_id": {
    "$oid": "6859b2ddae87f6a005bda031"
  },
  "name": "天津商务职业学院",
  "majorCategory": "财经类",
  "natureOfRunning": "公办",
  "schoolType": "专科（高职）",
  "is985": false,
  "is211": false,
  "isDoubleFirstClass": false,
  "province": "天津",
  "city": "天津市",
  "affiliation": "天津市",
  "campuses": [
    {
      "name": null,
      "longitude": 117.339826,
      "latitude": 39.009553
    }
  ]
},
{
  "_id": {
    "$oid": "6859b2ddae87f6a005bda032"
  },
  "name": "天津铁道职业技术学院",
  "majorCategory": "理工类",
  "natureOfRunning": "公办",
  "schoolType": "专科（高职）",
  "is985": false,
  "is211": false,
  "isDoubleFirstClass": false,
  "province": "天津",
  "city": "天津市",
  "affiliation": "天津市",
  "campuses": [
    {
      "name": null,
      "longitude": 117.213866,
      "latitude": 39.171607
    }
  ]
},
{
  "_id": {
    "$oid": "6859b2ddae87f6a005bda033"
  },
  "name": "天津电子信息职业技术学院",
  "majorCategory": "理工类",
  "natureOfRunning": "公办",
  "schoolType": "专科（高职）",
  "is985": false,
  "is211": false,
  "isDoubleFirstClass": false,
  "province": "天津",
  "city": "天津市",
  "affiliation": "天津市",
  "campuses": [
    {
      "name": null,
      "longitude": 117.371158,
      "latitude": 39.007871
    }
  ]
},
{
  "_id": {
    "$oid": "6859b2ddae87f6a005bda034"
  },
  "name": "中国人民解放军陆军军事交通学院",
  "majorCategory": "军事类",
  "natureOfRunning": "公办",
  "schoolType": "普通本科",
  "is985": false,
  "is211": false,
  "isDoubleFirstClass": false,
  "province": "天津",
  "city": "天津市",
  "affiliation": "解放军总后勤部",
  "campuses": [
    {
      "name": null,
      "longitude": 117.258796,
      "latitude": 39.128364
    }
  ]
},
{
  "_id": {
    "$oid": "6859b2ddae87f6a005bda035"
  },
  "name": "天津交通职业学院",
  "majorCategory": "理工类",
  "natureOfRunning": "公办",
  "schoolType": "专科（高职）",
  "is985": false,
  "is211": false,
  "isDoubleFirstClass": false,
  "province": "天津",
  "city": "天津市",
  "affiliation": "天津市",
  "campuses": [
    {
      "name": null,
      "longitude": 117.070147,
      "latitude": 39.148001
    }
  ]
},
{
  "_id": {
    "$oid": "6859b2ddae87f6a005bda036"
  },
  "name": "天津美术学院",
  "majorCategory": "艺术类",
  "natureOfRunning": "公办",
  "schoolType": "普通本科",
  "is985": false,
  "is211": false,
  "isDoubleFirstClass": false,
  "province": "天津",
  "city": "天津市",
  "affiliation": "天津市",
  "campuses": [
    {
      "name": null,
      "longitude": 117.211033,
      "latitude": 39.182068
    }
  ]
},
{
  "_id": {
    "$oid": "6859b2ddae87f6a005bda037"
  },
  "name": "天津公安警官职业学院",
  "majorCategory": "政法类",
  "natureOfRunning": "公办",
  "schoolType": "专科（高职）",
  "is985": false,
  "is211": false,
  "isDoubleFirstClass": false,
  "province": "天津",
  "city": "天津市",
  "affiliation": "天津市",
  "campuses": [
    {
      "name": null,
      "longitude": 117.103455,
      "latitude": 39.001807
    }
  ]
},
{
  "_id": {
    "$oid": "6859b2ddae87f6a005bda038"
  },
  "name": "天津海运职业学院",
  "majorCategory": "综合类",
  "natureOfRunning": "公办",
  "schoolType": "专科（高职）",
  "is985": false,
  "is211": false,
  "isDoubleFirstClass": false,
  "province": "天津",
  "city": "天津市",
  "affiliation": "天津市",
  "campuses": [
    {
      "name": null,
      "longitude": 117.358455,
      "latitude": 39.001617
    }
  ]
},
{
  "_id": {
    "$oid": "6859b2ddae87f6a005bda039"
  },
  "name": "天津现代职业技术学院",
  "majorCategory": "综合类",
  "natureOfRunning": "公办",
  "schoolType": "专科（高职）",
  "is985": false,
  "is211": false,
  "isDoubleFirstClass": false,
  "province": "天津",
  "city": "天津市",
  "affiliation": "天津市",
  "campuses": [
    {
      "name": null,
      "longitude": 117.361887,
      "latitude": 39.01826
    }
  ]
},
{
  "_id": {
    "$oid": "6859b2ddae87f6a005bda03a"
  },
  "name": "天津轻工职业技术学院",
  "majorCategory": "综合类",
  "natureOfRunning": "公办",
  "schoolType": "专科（高职）",
  "is985": false,
  "is211": false,
  "isDoubleFirstClass": false,
  "province": "天津",
  "city": "天津市",
  "affiliation": "天津市",
  "campuses": [
    {
      "name": null,
      "longitude": 117.366565,
      "latitude": 39.02159
    }
  ]
},
{
  "_id": {
    "$oid": "6859b2ddae87f6a005bda03b"
  },
  "name": "天津机电职业技术学院",
  "majorCategory": "理工类",
  "natureOfRunning": "公办",
  "schoolType": "专科（高职）",
  "is985": false,
  "is211": false,
  "isDoubleFirstClass": false,
  "province": "天津",
  "city": "天津市",
  "affiliation": "天津市",
  "campuses": [
    {
      "name": null,
      "longitude": 117.348211,
      "latitude": 39.012902
    }
  ]
},
{
  "_id": {
    "$oid": "6859b2ddae87f6a005bda03c"
  },
  "name": "天津渤海职业技术学院",
  "majorCategory": "综合类",
  "natureOfRunning": "公办",
  "schoolType": "专科（高职）",
  "is985": false,
  "is211": false,
  "isDoubleFirstClass": false,
  "province": "天津",
  "city": "天津市",
  "affiliation": "天津市",
  "campuses": [
    {
      "name": null,
      "longitude": 117.214535,
      "latitude": 39.071234
    }
  ]
},
{
  "_id": {
    "$oid": "6859b2ddae87f6a005bda03d"
  },
  "name": "天津石油职业技术学院",
  "majorCategory": "理工类",
  "natureOfRunning": "公办",
  "schoolType": "专科（高职）",
  "is985": false,
  "is211": false,
  "isDoubleFirstClass": false,
  "province": "天津",
  "city": "天津市",
  "affiliation": "天津市",
  "campuses": [
    {
      "name": null,
      "longitude": 117.212327,
      "latitude": 38.842023
    }
  ]
},
{
  "_id": {
    "$oid": "6859b2ddae87f6a005bda03e"
  },
  "name": "天津音乐学院",
  "majorCategory": "艺术类",
  "natureOfRunning": "公办",
  "schoolType": "普通本科",
  "is985": false,
  "is211": false,
  "isDoubleFirstClass": false,
  "province": "天津",
  "city": "天津市",
  "affiliation": "天津市",
  "campuses": [
    {
      "name": null,
      "longitude": 117.223517,
      "latitude": 39.121944
    }
  ]
},
{
  "_id": {
    "$oid": "6859b2ddae87f6a005bda03f"
  },
  "name": "天津国土资源和房屋职业学院",
  "majorCategory": "综合类",
  "natureOfRunning": "公办",
  "schoolType": "专科（高职）",
  "is985": false,
  "is211": false,
  "isDoubleFirstClass": false,
  "province": "天津",
  "city": "天津市",
  "affiliation": "天津市",
  "campuses": [
    {
      "name": null,
      "longitude": 117.447113,
      "latitude": 38.867827
    }
  ]
},
{
  "_id": {
    "$oid": "6859b2ddae87f6a005bda040"
  },
  "name": "天津城市建设管理职业技术学院",
  "majorCategory": "综合类",
  "natureOfRunning": "公办",
  "schoolType": "专科（高职）",
  "is985": false,
  "is211": false,
  "isDoubleFirstClass": false,
  "province": "天津",
  "city": "天津市",
  "affiliation": "天津市",
  "campuses": [
    {
      "name": null,
      "longitude": 117.102341,
      "latitude": 39.191056
    }
  ]
},
{
  "_id": {
    "$oid": "6859b2ddae87f6a005bda041"
  },
  "name": "天津城市职业学院",
  "majorCategory": "综合类",
  "natureOfRunning": "公办",
  "schoolType": "专科（高职）",
  "is985": false,
  "is211": false,
  "isDoubleFirstClass": false,
  "province": "天津",
  "city": "天津市",
  "affiliation": "天津市",
  "campuses": [
    {
      "name": null,
      "longitude": 117.230825,
      "latitude": 39.148158
    }
  ]
},
{
  "_id": {
    "$oid": "6859b2ddae87f6a005bda042"
  },
  "name": "天津工程职业技术学院",
  "majorCategory": "理工类",
  "natureOfRunning": "公办",
  "schoolType": "专科（高职）",
  "is985": false,
  "is211": false,
  "isDoubleFirstClass": false,
  "province": "天津",
  "city": "天津市",
  "affiliation": "天津市",
  "campuses": [
    {
      "name": null,
      "longitude": 117.492337,
      "latitude": 38.722427
    }
  ]
},
{
  "_id": {
    "$oid": "6859b2ddae87f6a005bda043"
  },
  "name": "天津生物工程职业技术学院",
  "majorCategory": "医药类",
  "natureOfRunning": "公办",
  "schoolType": "专科（高职）",
  "is985": false,
  "is211": false,
  "isDoubleFirstClass": false,
  "province": "天津",
  "city": "天津市",
  "affiliation": "天津市",
  "campuses": [
    {
      "name": null,
      "longitude": 117.54291,
      "latitude": 39.073361
    },
    {
      "name": null,
      "longitude": 117.195199,
      "latitude": 39.160598
    }
  ]
},
{
  "_id": {
    "$oid": "6859b2ddae87f6a005bda044"
  },
  "name": "天津传媒学院",
  "majorCategory": "体育类",
  "natureOfRunning": "民办",
  "schoolType": "普通本科",
  "is985": false,
  "is211": false,
  "isDoubleFirstClass": false,
  "province": "天津",
  "city": "天津市",
  "affiliation": "天津市",
  "campuses": [
    {
      "name": null,
      "longitude": 117.262895,
      "latitude": 40.044048
    }
  ]
},
{
  "_id": {
    "$oid": "6859b2ddae87f6a005bda045"
  },
  "name": "天津工业职业学院",
  "majorCategory": "理工类",
  "natureOfRunning": "公办",
  "schoolType": "专科（高职）",
  "is985": false,
  "is211": false,
  "isDoubleFirstClass": false,
  "province": "天津",
  "city": "天津市",
  "affiliation": "天津市",
  "campuses": [
    {
      "name": null,
      "longitude": 117.108364,
      "latitude": 39.258087
    }
  ]
},
{
  "_id": {
    "$oid": "6859b2ddae87f6a005bda046"
  },
  "name": "天津艺术职业学院",
  "majorCategory": "艺术类",
  "natureOfRunning": "公办",
  "schoolType": "专科（高职）",
  "is985": false,
  "is211": false,
  "isDoubleFirstClass": false,
  "province": "天津",
  "city": "天津市",
  "affiliation": "天津市",
  "campuses": [
    {
      "name": null,
      "longitude": 117.274333,
      "latitude": 39.091468
    },
    {
      "name": null,
      "longitude": 117.177496,
      "latitude": 39.088843
    }
  ]
},
{
  "_id": {
    "$oid": "6859b2ddae87f6a005bda047"
  },
  "name": "天津工艺美术职业学院",
  "majorCategory": "艺术类",
  "natureOfRunning": "公办",
  "schoolType": "专科（高职）",
  "is985": false,
  "is211": false,
  "isDoubleFirstClass": false,
  "province": "天津",
  "city": "天津市",
  "affiliation": "天津市",
  "campuses": [
    {
      "name": null,
      "longitude": 117.217277,
      "latitude": 39.172922
    }
  ]
},
{
  "_id": {
    "$oid": "6859b2ddae87f6a005bda048"
  },
  "name": "天津广播影视职业学院",
  "majorCategory": "艺术类",
  "natureOfRunning": "公办",
  "schoolType": "专科（高职）",
  "is985": false,
  "is211": false,
  "isDoubleFirstClass": false,
  "province": "天津",
  "city": "天津市",
  "affiliation": "天津市",
  "campuses": [
    {
      "name": null,
      "longitude": 117.107733,
      "latitude": 39.119434
    }
  ]
},
{
  "_id": {
    "$oid": "6859b2ddae87f6a005bda049"
  },
  "name": "天津开发区职业技术学院",
  "majorCategory": "综合类",
  "natureOfRunning": "公办",
  "schoolType": "专科（高职）",
  "is985": false,
  "is211": false,
  "isDoubleFirstClass": false,
  "province": "天津",
  "city": "天津市",
  "affiliation": "天津市",
  "campuses": [
    {
      "name": null,
      "longitude": 117.216593,
      "latitude": 39.108932
    }
  ]
},
{
  "_id": {
    "$oid": "6859b2ddae87f6a005bda04a"
  },
  "name": "天津滨海汽车工程职业学院",
  "majorCategory": "理工类",
  "natureOfRunning": "民办",
  "schoolType": "专科（高职）",
  "is985": false,
  "is211": false,
  "isDoubleFirstClass": false,
  "province": "天津",
  "city": "天津市",
  "affiliation": "天津市教委",
  "campuses": [
    {
      "name": null,
      "longitude": 117.467037,
      "latitude": 38.987438
    }
  ]
},
{
  "_id": {
    "$oid": "6859b2ddae87f6a005bda04b"
  },
  "name": "天津体育职业学院",
  "majorCategory": "体育类",
  "natureOfRunning": "公办",
  "schoolType": "专科（高职）",
  "is985": false,
  "is211": false,
  "isDoubleFirstClass": false,
  "province": "天津",
  "city": "天津市",
  "affiliation": "天津市",
  "campuses": [
    {
      "name": null,
      "longitude": 117.05819,
      "latitude": 38.962812
    }
  ]
},
{
  "_id": {
    "$oid": "6859b2ddae87f6a005bda04c"
  },
  "name": "中国人民武装警察部队指挥学院",
  "majorCategory": "军事类",
  "natureOfRunning": "公办",
  "schoolType": "普通本科",
  "is985": false,
  "is211": false,
  "isDoubleFirstClass": false,
  "province": "天津",
  "city": "天津市",
  "affiliation": "中国人民武装警察部队",
  "campuses": [
    {
      "name": null,
      "longitude": 117.277892,
      "latitude": 39.130118
    }
  ]
},
{
  "_id": {
    "$oid": "6859b2ddae87f6a005bda04d"
  },
  "name": "海军工程大学勤务学院",
  "majorCategory": "军事类",
  "natureOfRunning": "公办",
  "schoolType": "普通本科",
  "is985": false,
  "is211": false,
  "isDoubleFirstClass": false,
  "province": "天津",
  "city": "天津市",
  "affiliation": "0",
  "campuses": [
    {
      "name": null,
      "longitude": 117.195264,
      "latitude": 39.084253
    }
  ]
},
{
  "_id": {
    "$oid": "6859b2ddae87f6a005bda04e"
  },
  "name": "河北大学",
  "majorCategory": "综合类",
  "natureOfRunning": "公办",
  "schoolType": "普通本科",
  "is985": false,
  "is211": false,
  "isDoubleFirstClass": false,
  "province": "河北",
  "city": "保定市",
  "affiliation": "河北省",
  "campuses": [
    {
      "name": "校本部",
      "longitude": 115.517374,
      "latitude": 38.87102
    },
    {
      "name": "新校区",
      "longitude": 115.567126,
      "latitude": 38.881669
    }
  ]
},
{
  "_id": {
    "$oid": "6859b2ddae87f6a005bda04f"
  },
  "name": "华北理工大学",
  "majorCategory": "综合类",
  "natureOfRunning": "公办",
  "schoolType": "普通本科",
  "is985": false,
  "is211": false,
  "isDoubleFirstClass": false,
  "province": "河北",
  "city": "唐山市",
  "affiliation": "河北省",
  "campuses": [
    {
      "name": "曹妃甸校区",
      "longitude": 118.59280791534424,
      "latitude": 39.20509452786917
    }
  ]
},
{
  "_id": {
    "$oid": "6859b2ddae87f6a005bda050"
  },
  "name": "华北科技学院",
  "majorCategory": "理工类",
  "natureOfRunning": "公办",
  "schoolType": "普通本科",
  "is985": false,
  "is211": false,
  "isDoubleFirstClass": false,
  "province": "河北",
  "city": "廊坊市",
  "affiliation": "应急管理部",
  "campuses": [
    {
      "name": null,
      "longitude": 116.797834,
      "latitude": 39.955792
    }
  ]
},
{
  "_id": {
    "$oid": "6859b2ddae87f6a005bda051"
  },
  "name": "河北科技大学",
  "majorCategory": "理工类",
  "natureOfRunning": "公办",
  "schoolType": "普通本科",
  "is985": false,
  "is211": false,
  "isDoubleFirstClass": false,
  "province": "河北",
  "city": "石家庄市",
  "affiliation": "河北省",
  "campuses": [
    {
      "name": null,
      "longitude": 114.509697,
      "latitude": 37.978091
    }
  ]
},
{
  "_id": {
    "$oid": "6859b2ddae87f6a005bda052"
  },
  "name": "河北工程大学",
  "majorCategory": "理工类",
  "natureOfRunning": "公办",
  "schoolType": "普通本科",
  "is985": false,
  "is211": false,
  "isDoubleFirstClass": false,
  "province": "河北",
  "city": "邯郸市",
  "affiliation": "河北省",
  "campuses": [
    {
      "name": null,
      "longitude": 114.495899,
      "latitude": 36.617765
    }
  ]
},
{
  "_id": {
    "$oid": "6859b2ddae87f6a005bda053"
  },
  "name": "燕山大学",
  "majorCategory": "理工类",
  "natureOfRunning": "公办",
  "schoolType": "普通本科",
  "is985": false,
  "is211": false,
  "isDoubleFirstClass": false,
  "province": "河北",
  "city": "秦皇岛市",
  "affiliation": "河北省",
  "campuses": [
    {
      "name": null,
      "longitude": 119.518201,
      "latitude": 39.909704
    }
  ]
},
{
  "_id": {
    "$oid": "6859b2ddae87f6a005bda054"
  },
  "name": "河北经贸大学",
  "majorCategory": "财经类",
  "natureOfRunning": "公办",
  "schoolType": "普通本科",
  "is985": false,
  "is211": false,
  "isDoubleFirstClass": false,
  "province": "河北",
  "city": "石家庄市",
  "affiliation": "河北省",
  "campuses": [
    {
      "name": null,
      "longitude": 114.451105,
      "latitude": 38.007367
    }
  ]
},
{
  "_id": {
    "$oid": "6859b2ddae87f6a005bda055"
  },
  "name": "石家庄铁道大学",
  "majorCategory": "理工类",
  "natureOfRunning": "公办",
  "schoolType": "普通本科",
  "is985": false,
  "is211": false,
  "isDoubleFirstClass": false,
  "province": "河北",
  "city": "石家庄市",
  "affiliation": "河北省",
  "campuses": [
    {
      "name": null,
      "longitude": 114.503606,
      "latitude": 38.08038
    }
  ]
},
{
  "_id": {
    "$oid": "6859b2ddae87f6a005bda056"
  },
  "name": "河北医科大学",
  "majorCategory": "医药类",
  "natureOfRunning": "公办",
  "schoolType": "普通本科",
  "is985": false,
  "is211": false,
  "isDoubleFirstClass": false,
  "province": "河北",
  "city": "石家庄市",
  "affiliation": "河北省",
  "campuses": [
    {
      "name": "中山校区",
      "longitude": 114.53467,
      "latitude": 38.044585
    },
    {
      "name": "建华校区",
      "longitude": 114.549521,
      "latitude": 38.016034
    }
  ]
},
{
  "_id": {
    "$oid": "6859b2ddae87f6a005bda057"
  },
  "name": "河北地质大学",
  "majorCategory": "财经类",
  "natureOfRunning": "公办",
  "schoolType": "普通本科",
  "is985": false,
  "is211": false,
  "isDoubleFirstClass": false,
  "province": "河北",
  "city": "石家庄市",
  "affiliation": "河北省",
  "campuses": [
    {
      "name": "主校区",
      "longitude": 114.715719,
      "latitude": 38.024107
    },
    {
      "name": "北校区",
      "longitude": 114.43496,
      "latitude": 38.090539
    }
  ]
},
{
  "_id": {
    "$oid": "6859b2ddae87f6a005bda058"
  },
  "name": "河北师范大学",
  "majorCategory": "师范类",
  "natureOfRunning": "公办",
  "schoolType": "普通本科",
  "is985": false,
  "is211": false,
  "isDoubleFirstClass": false,
  "province": "河北",
  "city": "石家庄市",
  "affiliation": "河北省",
  "campuses": [
    {
      "name": "新校区",
      "longitude": 114.520299,
      "latitude": 37.997626
    }
  ]
},
{
  "_id": {
    "$oid": "6859b2ddae87f6a005bda059"
  },
  "name": "华北电力大学保定校区",
  "majorCategory": "理工类",
  "natureOfRunning": "公办",
  "schoolType": "普通本科",
  "is985": false,
  "is211": true,
  "isDoubleFirstClass": true,
  "province": "河北",
  "city": "保定市",
  "affiliation": "教育部",
  "campuses": [
    {
      "name": null,
      "longitude": 115.499205,
      "latitude": 38.876556
    }
  ]
},
{
  "_id": {
    "$oid": "6859b2ddae87f6a005bda05a"
  },
  "name": "东北大学秦皇岛分校",
  "majorCategory": "理工类",
  "natureOfRunning": "公办",
  "schoolType": "普通本科",
  "is985": true,
  "is211": true,
  "isDoubleFirstClass": false,
  "province": "河北",
  "city": "秦皇岛市",
  "affiliation": "教育部",
  "campuses": [
    {
      "name": null,
      "longitude": 119.541427,
      "latitude": 39.918749
    }
  ]
},
{
  "_id": {
    "$oid": "6859b2ddae87f6a005bda05b"
  },
  "name": "燕京理工学院",
  "majorCategory": "理工类",
  "natureOfRunning": "民办",
  "schoolType": "普通本科",
  "is985": false,
  "is211": false,
  "isDoubleFirstClass": false,
  "province": "河北",
  "city": "廊坊市",
  "affiliation": "河北省教育厅",
  "campuses": [
    {
      "name": null,
      "longitude": 116.798349,
      "latitude": 39.999225
    }
  ]
},
{
  "_id": {
    "$oid": "6859b2ddae87f6a005bda05c"
  },
  "name": "北华航天工业学院",
  "majorCategory": "理工类",
  "natureOfRunning": "公办",
  "schoolType": "普通本科",
  "is985": false,
  "is211": false,
  "isDoubleFirstClass": false,
  "province": "河北",
  "city": "廊坊市",
  "affiliation": "河北省",
  "campuses": [
    {
      "name": null,
      "longitude": 116.726651,
      "latitude": 39.526699
    }
  ]
},
{
  "_id": {
    "$oid": "6859b2ddae87f6a005bda05d"
  },
  "name": "河北农业大学",
  "majorCategory": "农林类",
  "natureOfRunning": "公办",
  "schoolType": "普通本科",
  "is985": false,
  "is211": false,
  "isDoubleFirstClass": false,
  "province": "河北",
  "city": "保定市",
  "affiliation": "河北省",
  "campuses": [
    {
      "name": null,
      "longitude": 115.43957,
      "latitude": 38.826221
    }
  ]
},
{
  "_id": {
    "$oid": "6859b2ddae87f6a005bda05e"
  },
  "name": "河北金融学院",
  "majorCategory": "财经类",
  "natureOfRunning": "公办",
  "schoolType": "普通本科",
  "is985": false,
  "is211": false,
  "isDoubleFirstClass": false,
  "province": "河北",
  "city": "保定市",
  "affiliation": "河北省",
  "campuses": [
    {
      "name": null,
      "longitude": 115.492885,
      "latitude": 38.918632
    }
  ]
},
{
  "_id": {
    "$oid": "6859b2ddae87f6a005bda05f"
  },
  "name": "河北科技师范学院",
  "majorCategory": "师范类",
  "natureOfRunning": "公办",
  "schoolType": "普通本科",
  "is985": false,
  "is211": false,
  "isDoubleFirstClass": false,
  "province": "河北",
  "city": "秦皇岛市",
  "affiliation": "河北省",
  "campuses": [
    {
      "name": "秦皇岛校区",
      "longitude": 119.548659,
      "latitude": 39.911481
    },
    {
      "name": "昌黎校区",
      "longitude": 119.174207,
      "latitude": 39.705136
    }
  ]
},
{
  "_id": {
    "$oid": "6859b2ddae87f6a005bda060"
  },
  "name": "保定理工学院",
  "majorCategory": "其他",
  "natureOfRunning": "民办",
  "schoolType": "普通本科",
  "is985": false,
  "is211": false,
  "isDoubleFirstClass": false,
  "province": "河北",
  "city": "保定市",
  "affiliation": "河北省教育厅",
  "campuses": [
    {
      "name": null,
      "longitude": 115.478962,
      "latitude": 38.814721
    }
  ]
},
{
  "_id": {
    "$oid": "6859b2ddae87f6a005bda061"
  },
  "name": "防灾科技学院",
  "majorCategory": "理工类",
  "natureOfRunning": "公办",
  "schoolType": "普通本科",
  "is985": false,
  "is211": false,
  "isDoubleFirstClass": false,
  "province": "河北",
  "city": "廊坊市",
  "affiliation": "中国地震局",
  "campuses": [
    {
      "name": null,
      "longitude": 116.794072,
      "latitude": 39.954015
    }
  ]
},
{
  "_id": {
    "$oid": "6859b2ddae87f6a005bda062"
  },
  "name": "廊坊师范学院",
  "majorCategory": "师范类",
  "natureOfRunning": "公办",
  "schoolType": "普通本科",
  "is985": false,
  "is211": false,
  "isDoubleFirstClass": false,
  "province": "河北",
  "city": "廊坊市",
  "affiliation": "河北省",
  "campuses": [
    {
      "name": "廊坊校区",
      "longitude": 116.673376,
      "latitude": 39.524969
    },
    {
      "name": "固安校区",
      "longitude": 116.298696,
      "latitude": 39.438797
    }
  ]
},
{
  "_id": {
    "$oid": "6859b2ddae87f6a005bda063"
  },
  "name": "石家庄学院",
  "majorCategory": "综合类",
  "natureOfRunning": "公办",
  "schoolType": "普通本科",
  "is985": false,
  "is211": false,
  "isDoubleFirstClass": false,
  "province": "河北",
  "city": "石家庄市",
  "affiliation": "河北省",
  "campuses": [
    {
      "name": "北校区",
      "longitude": 114.624714,
      "latitude": 38.043675
    },
    {
      "name": "南校区",
      "longitude": 114.602043,
      "latitude": 38.019878
    }
  ]
},
{
  "_id": {
    "$oid": "6859b2ddae87f6a005bda064"
  },
  "name": "中央司法警官学院",
  "majorCategory": "政法类",
  "natureOfRunning": "公办",
  "schoolType": "普通本科",
  "is985": false,
  "is211": false,
  "isDoubleFirstClass": false,
  "province": "河北",
  "city": "保定市",
  "affiliation": "司法部",
  "campuses": [
    {
      "name": null,
      "longitude": 115.508536,
      "latitude": 38.8805
    }
  ]
},
{
  "_id": {
    "$oid": "6859b2ddae87f6a005bda065"
  },
  "name": "河北建筑工程学院",
  "majorCategory": "理工类",
  "natureOfRunning": "公办",
  "schoolType": "普通本科",
  "is985": false,
  "is211": false,
  "isDoubleFirstClass": false,
  "province": "河北",
  "city": "张家口市",
  "affiliation": "河北省",
  "campuses": [
    {
      "name": null,
      "longitude": 114.891099,
      "latitude": 40.754632
    }
  ]
},
{
  "_id": {
    "$oid": "6859b2ddae87f6a005bda066"
  },
  "name": "河北环境工程学院",
  "majorCategory": "综合类",
  "natureOfRunning": "公办",
  "schoolType": "普通本科",
  "is985": false,
  "is211": false,
  "isDoubleFirstClass": false,
  "province": "河北",
  "city": "秦皇岛市",
  "affiliation": "河北省",
  "campuses": [
    {
      "name": null,
      "longitude": 119.446902,
      "latitude": 39.867109
    }
  ]
},
{
  "_id": {
    "$oid": "6859b2ddae87f6a005bda067"
  },
  "name": "邯郸学院",
  "majorCategory": "师范类",
  "natureOfRunning": "公办",
  "schoolType": "普通本科",
  "is985": false,
  "is211": false,
  "isDoubleFirstClass": false,
  "province": "河北",
  "city": "邯郸市",
  "affiliation": "河北省",
  "campuses": [
    {
      "name": "邯郸学院本部",
      "longitude": 114.509244,
      "latitude": 36.576609
    },
    {
      "name": "邯郸学院大名分院",
      "longitude": 115.15038,
      "latitude": 36.284698
    }
  ]
},
{
  "_id": {
    "$oid": "6859b2ddae87f6a005bda068"
  },
  "name": "河北北方学院",
  "majorCategory": "综合类",
  "natureOfRunning": "公办",
  "schoolType": "普通本科",
  "is985": false,
  "is211": false,
  "isDoubleFirstClass": false,
  "province": "河北",
  "city": "张家口市",
  "affiliation": "河北省",
  "campuses": [
    {
      "name": null,
      "longitude": 114.885196,
      "latitude": 40.771483
    }
  ]
},
{
  "_id": {
    "$oid": "6859b2ddae87f6a005bda069"
  },
  "name": "承德医学院",
  "majorCategory": "医药类",
  "natureOfRunning": "公办",
  "schoolType": "普通本科",
  "is985": false,
  "is211": false,
  "isDoubleFirstClass": false,
  "province": "河北",
  "city": "承德市",
  "affiliation": "河北省",
  "campuses": [
    {
      "name": null,
      "longitude": 117.950887,
      "latitude": 41.031151
    }
  ]
},
{
  "_id": {
    "$oid": "6859b2ddae87f6a005bda06a"
  },
  "name": "河北工业职业技术大学",
  "majorCategory": "理工类",
  "natureOfRunning": "公办",
  "schoolType": "普通本科",
  "is985": false,
  "is211": false,
  "isDoubleFirstClass": false,
  "province": "河北",
  "city": "石家庄市",
  "affiliation": "河北省",
  "campuses": [
    {
      "name": null,
      "longitude": 114.454895,
      "latitude": 38.013683
    }
  ]
},
{
  "_id": {
    "$oid": "6859b2ddae87f6a005bda06b"
  },
  "name": "保定学院",
  "majorCategory": "师范类",
  "natureOfRunning": "公办",
  "schoolType": "普通本科",
  "is985": false,
  "is211": false,
  "isDoubleFirstClass": false,
  "province": "河北",
  "city": "保定市",
  "affiliation": "河北省",
  "campuses": [
    {
      "name": null,
      "longitude": 115.571407,
      "latitude": 38.879567
    }
  ]
},
{
  "_id": {
    "$oid": "6859b2ddae87f6a005bda06c"
  },
  "name": "沧州交通学院",
  "majorCategory": "理工类",
  "natureOfRunning": "民办",
  "schoolType": "普通本科",
  "is985": false,
  "is211": false,
  "isDoubleFirstClass": false,
  "province": "河北",
  "city": "沧州市",
  "affiliation": "河北省教育厅",
  "campuses": [
    {
      "name": null,
      "longitude": 117.307574,
      "latitude": 38.383497
    }
  ]
},
{
  "_id": {
    "$oid": "6859b2ddae87f6a005bda06d"
  },
  "name": "衡水学院",
  "majorCategory": "师范类",
  "natureOfRunning": "公办",
  "schoolType": "普通本科",
  "is985": false,
  "is211": false,
  "isDoubleFirstClass": false,
  "province": "河北",
  "city": "衡水市",
  "affiliation": "河北省",
  "campuses": [
    {
      "name": null,
      "longitude": 115.655787,
      "latitude": 37.741806
    }
  ]
},
{
  "_id": {
    "$oid": "6859b2ddae87f6a005bda06e"
  },
  "name": "河北医科大学临床学院",
  "majorCategory": "医药类",
  "natureOfRunning": "民办",
  "schoolType": "普通本科",
  "is985": false,
  "is211": false,
  "isDoubleFirstClass": false,
  "province": "河北",
  "city": "石家庄市",
  "affiliation": "河北省教育厅",
  "campuses": [
    {
      "name": null,
      "longitude": 114.542729,
      "latitude": 38.016189
    }
  ]
},
{
  "_id": {
    "$oid": "6859b2ddae87f6a005bda06f"
  },
  "name": "河北科技工程职业技术大学",
  "majorCategory": "理工类",
  "natureOfRunning": "公办",
  "schoolType": "普通本科",
  "is985": false,
  "is211": false,
  "isDoubleFirstClass": false,
  "province": "河北",
  "city": "保定市",
  "affiliation": "河北省",
  "campuses": [
    {
      "name": null,
      "longitude": 117.190689,
      "latitude": 39.146648
    }
  ]
},
{
  "_id": {
    "$oid": "6859b2ddae87f6a005bda070"
  },
  "name": "邢台学院",
  "majorCategory": "师范类",
  "natureOfRunning": "公办",
  "schoolType": "普通本科",
  "is985": false,
  "is211": false,
  "isDoubleFirstClass": false,
  "province": "河北",
  "city": "邢台市",
  "affiliation": "河北省",
  "campuses": [
    {
      "name": null,
      "longitude": 114.509769,
      "latitude": 37.088626
    },
    {
      "name": "机电工程学院校区",
      "longitude": 114.462209,
      "latitude": 37.09733
    }
  ]
},
{
  "_id": {
    "$oid": "6859b2ddae87f6a005bda071"
  },
  "name": "中国人民警察大学",
  "majorCategory": "政法类",
  "natureOfRunning": "公办",
  "schoolType": "普通本科",
  "is985": false,
  "is211": false,
  "isDoubleFirstClass": false,
  "province": "河北",
  "city": "廊坊市",
  "affiliation": "公安部",
  "campuses": [
    {
      "name": null,
      "longitude": 116.656822,
      "latitude": 39.530651
    }
  ]
},
{
  "_id": {
    "$oid": "6859b2ddae87f6a005bda072"
  },
  "name": "北京中医药大学东方学院",
  "majorCategory": "综合类",
  "natureOfRunning": "民办",
  "schoolType": "普通本科",
  "is985": false,
  "is211": false,
  "isDoubleFirstClass": false,
  "province": "河北",
  "city": "廊坊市",
  "affiliation": "河北省教育厅",
  "campuses": [
    {
      "name": "廊坊校区",
      "longitude": 116.755147,
      "latitude": 39.60208
    },
    {
      "name": "渤海校区",
      "longitude": 117.443321,
      "latitude": 38.382883
    }
  ]
},
{
  "_id": {
    "$oid": "6859b2ddae87f6a005bda073"
  },
  "name": "唐山师范学院",
  "majorCategory": "师范类",
  "natureOfRunning": "公办",
  "schoolType": "普通本科",
  "is985": false,
  "is211": false,
  "isDoubleFirstClass": false,
  "province": "河北",
  "city": "唐山市",
  "affiliation": "河北省",
  "campuses": [
    {
      "name": "校本部大学道校区",
      "longitude": 118.174052,
      "latitude": 39.674992
    },
    {
      "name": "校本部学院路校区",
      "longitude": 118.159669,
      "latitude": 39.637209
    }
  ]
},
{
  "_id": {
    "$oid": "6859b2ddae87f6a005bda074"
  },
  "name": "唐山学院",
  "majorCategory": "理工类",
  "natureOfRunning": "公办",
  "schoolType": "普通本科",
  "is985": false,
  "is211": false,
  "isDoubleFirstClass": false,
  "province": "河北",
  "city": "唐山市",
  "affiliation": "河北省",
  "campuses": [
    {
      "name": null,
      "longitude": 118.213039,
      "latitude": 39.61951
    }
  ]
},
{
  "_id": {
    "$oid": "6859b2ddae87f6a005bda075"
  },
  "name": "燕山大学里仁学院",
  "majorCategory": "理工类",
  "natureOfRunning": "民办",
  "schoolType": "普通本科",
  "is985": false,
  "is211": false,
  "isDoubleFirstClass": false,
  "province": "河北",
  "city": "秦皇岛市",
  "affiliation": "河北省教育厅",
  "campuses": [
    {
      "name": null,
      "longitude": 119.521118,
      "latitude": 39.904939
    }
  ]
},
{
  "_id": {
    "$oid": "6859b2ddae87f6a005bda076"
  },
  "name": "石家庄铁道大学四方学院",
  "majorCategory": "理工类",
  "natureOfRunning": "民办",
  "schoolType": "普通本科",
  "is985": false,
  "is211": false,
  "isDoubleFirstClass": false,
  "province": "河北",
  "city": "石家庄市",
  "affiliation": "河北省教育厅",
  "campuses": [
    {
      "name": null,
      "longitude": 114.347347,
      "latitude": 38.052155
    }
  ]
},
{
  "_id": {
    "$oid": "6859b2ddae87f6a005bda077"
  },
  "name": "河北经贸大学经济管理学院",
  "majorCategory": "财经类",
  "natureOfRunning": "民办",
  "schoolType": "普通本科",
  "is985": false,
  "is211": false,
  "isDoubleFirstClass": false,
  "province": "河北",
  "city": "石家庄市",
  "affiliation": "河北省教育厅",
  "campuses": [
    {
      "name": null,
      "longitude": 114.451497,
      "latitude": 38.005719
    }
  ]
},
{
  "_id": {
    "$oid": "6859b2ddae87f6a005bda078"
  },
  "name": "河北传媒学院",
  "majorCategory": "艺术类",
  "natureOfRunning": "民办",
  "schoolType": "普通本科",
  "is985": false,
  "is211": false,
  "isDoubleFirstClass": false,
  "province": "河北",
  "city": "石家庄市",
  "affiliation": "河北省教育厅",
  "campuses": [
    {
      "name": null,
      "longitude": 114.658371,
      "latitude": 37.906282
    }
  ]
},
{
  "_id": {
    "$oid": "6859b2ddae87f6a005bda079"
  },
  "name": "河北师范大学汇华学院",
  "majorCategory": "师范类",
  "natureOfRunning": "民办",
  "schoolType": "普通本科",
  "is985": false,
  "is211": false,
  "isDoubleFirstClass": false,
  "province": "河北",
  "city": "石家庄市",
  "affiliation": "河北省教育厅",
  "campuses": [
    {
      "name": null,
      "longitude": 114.457849,
      "latitude": 38.005568
    }
  ]
},
{
  "_id": {
    "$oid": "6859b2ddae87f6a005bda07a"
  },
  "name": "河北工程大学科信学院",
  "majorCategory": "理工类",
  "natureOfRunning": "民办",
  "schoolType": "普通本科",
  "is985": false,
  "is211": false,
  "isDoubleFirstClass": false,
  "province": "河北",
  "city": "邯郸市",
  "affiliation": "河北省教育厅",
  "campuses": [
    {
      "name": null,
      "longitude": 114.502826,
      "latitude": 36.571679
    }
  ]
},
{
  "_id": {
    "$oid": "6859b2ddae87f6a005bda07b"
  },
  "name": "石家庄铁路职业技术学院",
  "majorCategory": "理工类",
  "natureOfRunning": "公办",
  "schoolType": "专科（高职）",
  "is985": false,
  "is211": false,
  "isDoubleFirstClass": false,
  "province": "河北",
  "city": "石家庄市",
  "affiliation": "河北省",
  "campuses": [
    {
      "name": null,
      "longitude": 114.501405,
      "latitude": 38.130114
    },
    {
      "name": null,
      "longitude": 114.525793,
      "latitude": 38.088297
    }
  ]
},
{
  "_id": {
    "$oid": "6859b2ddae87f6a005bda07c"
  },
  "name": "河北中医学院",
  "majorCategory": "医药类",
  "natureOfRunning": "公办",
  "schoolType": "普通本科",
  "is985": false,
  "is211": false,
  "isDoubleFirstClass": false,
  "province": "河北",
  "city": "石家庄市",
  "affiliation": "河北省",
  "campuses": [
    {
      "name": "杏苑校区",
      "longitude": 114.34799,
      "latitude": 38.0535
    },
    {
      "name": "橘泉校区",
      "longitude": 114.453861,
      "latitude": 38.008192
    }
  ]
},
{
  "_id": {
    "$oid": "6859b2ddae87f6a005bda07d"
  },
  "name": "河北工程技术学院",
  "majorCategory": "综合类",
  "natureOfRunning": "民办",
  "schoolType": "普通本科",
  "is985": false,
  "is211": false,
  "isDoubleFirstClass": false,
  "province": "河北",
  "city": "石家庄市",
  "affiliation": "河北省教育厅",
  "campuses": [
    {
      "name": null,
      "longitude": 114.456314,
      "latitude": 37.995741
    }
  ]
},
{
  "_id": {
    "$oid": "6859b2ddae87f6a005bda07e"
  },
  "name": "河北外国语学院",
  "majorCategory": "语言类",
  "natureOfRunning": "民办",
  "schoolType": "普通本科",
  "is985": false,
  "is211": false,
  "isDoubleFirstClass": false,
  "province": "河北",
  "city": "石家庄市",
  "affiliation": "河北省教育厅",
  "campuses": [
    {
      "name": null,
      "longitude": 114.448808,
      "latitude": 37.995783
    }
  ]
},
{
  "_id": {
    "$oid": "6859b2ddae87f6a005bda07f"
  },
  "name": "河北地质大学华信学院",
  "majorCategory": "财经类",
  "natureOfRunning": "民办",
  "schoolType": "普通本科",
  "is985": false,
  "is211": false,
  "isDoubleFirstClass": false,
  "province": "河北",
  "city": "石家庄市",
  "affiliation": "河北省教育厅",
  "campuses": [
    {
      "name": null,
      "longitude": 114.449851,
      "latitude": 37.993645
    }
  ]
},
{
  "_id": {
    "$oid": "6859b2ddae87f6a005bda080"
  },
  "name": "沧州师范学院",
  "majorCategory": "师范类",
  "natureOfRunning": "公办",
  "schoolType": "普通本科",
  "is985": false,
  "is211": false,
  "isDoubleFirstClass": false,
  "province": "河北",
  "city": "沧州市",
  "affiliation": "河北省",
  "campuses": [
    {
      "name": null,
      "longitude": 116.777898,
      "latitude": 38.284516
    }
  ]
},
{
  "_id": {
    "$oid": "6859b2ddae87f6a005bda081"
  },
  "name": "河北科技学院",
  "majorCategory": "理工类",
  "natureOfRunning": "民办",
  "schoolType": "普通本科",
  "is985": false,
  "is211": false,
  "isDoubleFirstClass": false,
  "province": "河北",
  "city": "保定市",
  "affiliation": "河北省教育厅",
  "campuses": [
    {
      "name": null,
      "longitude": 115.486408,
      "latitude": 38.813436
    }
  ]
},
{
  "_id": {
    "$oid": "6859b2ddae87f6a005bda082"
  },
  "name": "张家口学院",
  "majorCategory": "师范类",
  "natureOfRunning": "公办",
  "schoolType": "普通本科",
  "is985": false,
  "is211": false,
  "isDoubleFirstClass": false,
  "province": "河北",
  "city": "张家口市",
  "affiliation": "河北省",
  "campuses": [
    {
      "name": null,
      "longitude": 114.862469,
      "latitude": 40.841611
    }
  ]
},
{
  "_id": {
    "$oid": "6859b2ddae87f6a005bda083"
  },
  "name": "河北农业大学现代科技学院",
  "majorCategory": "农林类",
  "natureOfRunning": "民办",
  "schoolType": "普通本科",
  "is985": false,
  "is211": false,
  "isDoubleFirstClass": false,
  "province": "河北",
  "city": "保定市",
  "affiliation": "河北省教育厅",
  "campuses": [
    {
      "name": null,
      "longitude": 115.443682,
      "latitude": 38.827415
    }
  ]
},
{
  "_id": {
    "$oid": "6859b2ddae87f6a005bda084"
  },
  "name": "邢台职业技术学院",
  "majorCategory": "理工类",
  "natureOfRunning": "公办",
  "schoolType": "专科（高职）",
  "is985": false,
  "is211": false,
  "isDoubleFirstClass": false,
  "province": "河北",
  "city": "邢台市",
  "affiliation": "河北省",
  "campuses": [
    {
      "name": null,
      "longitude": 114.454743,
      "latitude": 37.083572
    }
  ]
},
{
  "_id": {
    "$oid": "6859b2ddae87f6a005bda085"
  },
  "name": "河北水利电力学院",
  "majorCategory": "理工类",
  "natureOfRunning": "公办",
  "schoolType": "普通本科",
  "is985": false,
  "is211": false,
  "isDoubleFirstClass": false,
  "province": "河北",
  "city": "沧州市",
  "affiliation": "河北省",
  "campuses": [
    {
      "name": null,
      "longitude": 116.799127,
      "latitude": 38.294684
    }
  ]
},
{
  "_id": {
    "$oid": "6859b2ddae87f6a005bda086"
  },
  "name": "石家庄邮电职业技术学院",
  "majorCategory": "理工类",
  "natureOfRunning": "公办",
  "schoolType": "专科（高职）",
  "is985": false,
  "is211": false,
  "isDoubleFirstClass": false,
  "province": "河北",
  "city": "石家庄市",
  "affiliation": "河北省",
  "campuses": [
    {
      "name": "西校区",
      "longitude": 114.531172,
      "latitude": 38.018536
    },
    {
      "name": "东校区",
      "longitude": 114.556016,
      "latitude": 38.018913
    }
  ]
},
{
  "_id": {
    "$oid": "6859b2ddae87f6a005bda087"
  },
  "name": "河北石油职业技术大学",
  "majorCategory": "理工类",
  "natureOfRunning": "公办",
  "schoolType": "普通本科",
  "is985": false,
  "is211": false,
  "isDoubleFirstClass": false,
  "province": "河北",
  "city": "承德市",
  "affiliation": "河北省教育厅",
  "campuses": [
    {
      "name": null,
      "longitude": 117.956504,
      "latitude": 40.89636
    }
  ]
},
{
  "_id": {
    "$oid": "6859b2ddae87f6a005bda088"
  },
  "name": "河北美术学院",
  "majorCategory": "艺术类",
  "natureOfRunning": "民办",
  "schoolType": "普通本科",
  "is985": false,
  "is211": false,
  "isDoubleFirstClass": false,
  "province": "河北",
  "city": "石家庄市",
  "affiliation": "河北省教育厅",
  "campuses": [
    {
      "name": null,
      "longitude": 114.713659,
      "latitude": 38.344251
    }
  ]
},
{
  "_id": {
    "$oid": "6859b2ddae87f6a005bda089"
  },
  "name": "保定职业技术学院",
  "majorCategory": "综合类",
  "natureOfRunning": "公办",
  "schoolType": "专科（高职）",
  "is985": false,
  "is211": false,
  "isDoubleFirstClass": false,
  "province": "河北",
  "city": "保定市",
  "affiliation": "河北省",
  "campuses": [
    {
      "name": null,
      "longitude": 115.512991,
      "latitude": 38.880152
    }
  ]
},
{
  "_id": {
    "$oid": "6859b2ddae87f6a005bda08a"
  },
  "name": "秦皇岛职业技术学院",
  "majorCategory": "理工类",
  "natureOfRunning": "公办",
  "schoolType": "专科（高职）",
  "is985": false,
  "is211": false,
  "isDoubleFirstClass": false,
  "province": "河北",
  "city": "秦皇岛市",
  "affiliation": "河北省",
  "campuses": [
    {
      "name": null,
      "longitude": 119.475536,
      "latitude": 39.838145
    }
  ]
},
{
  "_id": {
    "$oid": "6859b2ddae87f6a005bda08b"
  },
  "name": "河北民族师范学院",
  "majorCategory": "师范类",
  "natureOfRunning": "公办",
  "schoolType": "普通本科",
  "is985": false,
  "is211": false,
  "isDoubleFirstClass": false,
  "province": "河北",
  "city": "承德市",
  "affiliation": "河北省",
  "campuses": [
    {
      "name": null,
      "longitude": 117.952326,
      "latitude": 40.890857
    }
  ]
},
{
  "_id": {
    "$oid": "6859b2ddae87f6a005bda08c"
  },
  "name": "河北对外经贸职业学院",
  "majorCategory": "语言类",
  "natureOfRunning": "公办",
  "schoolType": "专科（高职）",
  "is985": false,
  "is211": false,
  "isDoubleFirstClass": false,
  "province": "河北",
  "city": "秦皇岛市",
  "affiliation": "河北省",
  "campuses": [
    {
      "name": null,
      "longitude": 119.421448,
      "latitude": 39.799787
    }
  ]
},
{
  "_id": {
    "$oid": "6859b2ddae87f6a005bda08d"
  },
  "name": "华北理工大学轻工学院",
  "majorCategory": "理工类",
  "natureOfRunning": "民办",
  "schoolType": "普通本科",
  "is985": false,
  "is211": false,
  "isDoubleFirstClass": false,
  "province": "河北",
  "city": "唐山市",
  "affiliation": "河北省教育厅",
  "campuses": [
    {
      "name": null,
      "longitude": 118.592367,
      "latitude": 39.203545
    }
  ]
},
{
  "_id": {
    "$oid": "6859b2ddae87f6a005bda08e"
  },
  "name": "河北化工医药职业技术学院",
  "majorCategory": "理工类",
  "natureOfRunning": "公办",
  "schoolType": "专科（高职）",
  "is985": false,
  "is211": false,
  "isDoubleFirstClass": false,
  "province": "河北",
  "city": "石家庄市",
  "affiliation": "河北省",
  "campuses": [
    {
      "name": null,
      "longitude": 114.597571,
      "latitude": 37.989013
    }
  ]
},
{
  "_id": {
    "$oid": "6859b2ddae87f6a005bda08f"
  },
  "name": "河北交通职业技术学院",
  "majorCategory": "理工类",
  "natureOfRunning": "公办",
  "schoolType": "专科（高职）",
  "is985": false,
  "is211": false,
  "isDoubleFirstClass": false,
  "province": "河北",
  "city": "石家庄市",
  "affiliation": "河北省",
  "campuses": [
    {
      "name": "主校区",
      "longitude": 114.643208,
      "latitude": 38.026277
    },
    {
      "name": "西校区",
      "longitude": 114.451877,
      "latitude": 38.012938
    }
  ]
},
{
  "_id": {
    "$oid": "6859b2ddae87f6a005bda090"
  },
  "name": "河北政法职业学院",
  "majorCategory": "政法类",
  "natureOfRunning": "公办",
  "schoolType": "专科（高职）",
  "is985": false,
  "is211": false,
  "isDoubleFirstClass": false,
  "province": "河北",
  "city": "石家庄市",
  "affiliation": "河北省",
  "campuses": [
    {
      "name": null,
      "longitude": 114.494373,
      "latitude": 38.127826
    }
  ]
},
{
  "_id": {
    "$oid": "6859b2ddae87f6a005bda091"
  },
  "name": "沧州医学高等专科学校",
  "majorCategory": "医药类",
  "natureOfRunning": "公办",
  "schoolType": "专科（高职）",
  "is985": false,
  "is211": false,
  "isDoubleFirstClass": false,
  "province": "河北",
  "city": "沧州市",
  "affiliation": "河北省",
  "campuses": [
    {
      "name": null,
      "longitude": 116.797728,
      "latitude": 38.284176
    }
  ]
},
{
  "_id": {
    "$oid": "6859b2ddae87f6a005bda092"
  },
  "name": "河北东方学院",
  "majorCategory": "综合类",
  "natureOfRunning": "民办",
  "schoolType": "普通本科",
  "is985": false,
  "is211": false,
  "isDoubleFirstClass": false,
  "province": "河北",
  "city": "廊坊市",
  "affiliation": "河北省教育厅",
  "campuses": [
    {
      "name": null,
      "longitude": 116.742926,
      "latitude": 39.595066
    }
  ]
},
{
  "_id": {
    "$oid": "6859b2ddae87f6a005bda093"
  },
  "name": "石家庄医学高等专科学校",
  "majorCategory": "医药类",
  "natureOfRunning": "民办",
  "schoolType": "专科（高职）",
  "is985": false,
  "is211": false,
  "isDoubleFirstClass": false,
  "province": "河北",
  "city": "石家庄市",
  "affiliation": "河北省教育厅",
  "campuses": [
    {
      "name": null,
      "longitude": 114.4116,
      "latitude": 38.261278
    }
  ]
},
{
  "_id": {
    "$oid": "6859b2ddae87f6a005bda094"
  },
  "name": "廊坊职业技术学院",
  "majorCategory": "综合类",
  "natureOfRunning": "公办",
  "schoolType": "专科（高职）",
  "is985": false,
  "is211": false,
  "isDoubleFirstClass": false,
  "province": "河北",
  "city": "廊坊市",
  "affiliation": "河北省",
  "campuses": [
    {
      "name": null,
      "longitude": 116.737946,
      "latitude": 39.61439
    }
  ]
},
{
  "_id": {
    "$oid": "6859b2ddae87f6a005bda095"
  },
  "name": "河北轨道运输职业技术学院",
  "majorCategory": "理工类",
  "natureOfRunning": "公办",
  "schoolType": "专科（高职）",
  "is985": false,
  "is211": false,
  "isDoubleFirstClass": false,
  "province": "河北",
  "city": "石家庄市",
  "affiliation": "河北省",
  "campuses": [
    {
      "name": null,
      "longitude": 114.70017,
      "latitude": 38.018131
    },
    {
      "name": null,
      "longitude": 114.474285,
      "latitude": 38.055218
    }
  ]
},
{
  "_id": {
    "$oid": "6859b2ddae87f6a005bda096"
  },
  "name": "华北理工大学冀唐学院",
  "majorCategory": "医药类",
  "natureOfRunning": "民办",
  "schoolType": "普通本科",
  "is985": false,
  "is211": false,
  "isDoubleFirstClass": false,
  "province": "河北",
  "city": "唐山市",
  "affiliation": "河北省教育厅",
  "campuses": [
    {
      "name": null,
      "longitude": 118.084726,
      "latitude": 39.581373
    }
  ]
},
{
  "_id": {
    "$oid": "6859b2ddae87f6a005bda097"
  },
  "name": "唐山职业技术学院",
  "majorCategory": "医药类",
  "natureOfRunning": "公办",
  "schoolType": "专科（高职）",
  "is985": false,
  "is211": false,
  "isDoubleFirstClass": false,
  "province": "河北",
  "city": "唐山市",
  "affiliation": "河北省",
  "campuses": [
    {
      "name": "南湖校区",
      "longitude": 118.091004,
      "latitude": 39.585253
    },
    {
      "name": "新华道校区",
      "longitude": 118.133765,
      "latitude": 39.625386
    }
  ]
},
{
  "_id": {
    "$oid": "6859b2ddae87f6a005bda098"
  },
  "name": "邯郸职业技术学院",
  "majorCategory": "理工类",
  "natureOfRunning": "公办",
  "schoolType": "专科（高职）",
  "is985": false,
  "is211": false,
  "isDoubleFirstClass": false,
  "province": "河北",
  "city": "邯郸市",
  "affiliation": "河北省",
  "campuses": [
    {
      "name": null,
      "longitude": 114.505599,
      "latitude": 36.582448
    }
  ]
},
{
  "_id": {
    "$oid": "6859b2ddae87f6a005bda099"
  },
  "name": "河北公安警察职业学院",
  "majorCategory": "政法类",
  "natureOfRunning": "公办",
  "schoolType": "专科（高职）",
  "is985": false,
  "is211": false,
  "isDoubleFirstClass": false,
  "province": "河北",
  "city": "石家庄市",
  "affiliation": "河北省",
  "campuses": [
    {
      "name": null,
      "longitude": 114.465157,
      "latitude": 37.998574
    }
  ]
},
{
  "_id": {
    "$oid": "6859b2ddae87f6a005bda09a"
  },
  "name": "沧州职业技术学院",
  "majorCategory": "综合类",
  "natureOfRunning": "公办",
  "schoolType": "专科（高职）",
  "is985": false,
  "is211": false,
  "isDoubleFirstClass": false,
  "province": "河北",
  "city": "沧州市",
  "affiliation": "河北省",
  "campuses": [
    {
      "name": null,
      "longitude": 116.817472,
      "latitude": 38.281662
    }
  ]
},
{
  "_id": {
    "$oid": "6859b2ddae87f6a005bda09b"
  },
  "name": "河北建材职业技术学院",
  "majorCategory": "理工类",
  "natureOfRunning": "公办",
  "schoolType": "专科（高职）",
  "is985": false,
  "is211": false,
  "isDoubleFirstClass": false,
  "province": "河北",
  "city": "秦皇岛市",
  "affiliation": "河北省",
  "campuses": [
    {
      "name": null,
      "longitude": 119.555907,
      "latitude": 39.912428
    }
  ]
},
{
  "_id": {
    "$oid": "6859b2ddae87f6a005bda09c"
  },
  "name": "河北软件职业技术学院",
  "majorCategory": "理工类",
  "natureOfRunning": "公办",
  "schoolType": "专科（高职）",
  "is985": false,
  "is211": false,
  "isDoubleFirstClass": false,
  "province": "河北",
  "city": "保定市",
  "affiliation": "河北省",
  "campuses": [
    {
      "name": null,
      "longitude": 115.538391,
      "latitude": 38.867046
    }
  ]
},
{
  "_id": {
    "$oid": "6859b2ddae87f6a005bda09d"
  },